[{"type": "node", "id": 473592443, "lat": 33.4944306, "lon": 130.5187554, "tags": {"name": "\u4e8c\u65e5\u5e02", "name:de": "Futsukaichi", "name:en": "Futsukaichi", "name:ja": "\u4e8c\u65e5\u5e02", "name:ko": "\ud6c4\uc4f0\uce74\uc774\uce58", "operator": "\u4e5d\u5dde\u65c5\u5ba2\u9244\u9053", "operator:ja": "\u4e5d\u5dde\u65c5\u5ba2\u9244\u9053", "public_transport": "station", "railway": "station", "wheelchair": "yes", "wikidata": "Q154366", "wikipedia": "ja:\u4e8c\u65e5\u5e02\u99c5"}}, {"type": "node", "id": 692545057, "lat": 33.5335589, "lon": 130.4577377, "tags": {"name": "\u30b5\u30cb\u30fc\u5b9d\u753a\u5e97", "name:en": "sunny", "shop": "supermarket"}}, {"type": "node", "id": 692545062, "lat": 33.5339245, "lon": 130.4581475, "tags": {"amenity": "restaurant", "brand": "Pepper Lunch", "brand:wikidata": "Q1016072", "brand:wikipedia": "en:Pepper Lunch", "cuisine": "steak_house", "name": "Pepper Lunch \u798f\u5ca1\u6625\u65e5\u5e97"}}, {"type": "node", "id": 695179235, "lat": 33.5358016, "lon": 130.4566225, "tags": {"brand": "\u30ed\u30fc\u30bd\u30f3", "brand:en": "LAWSON", "brand:ja": "\u30ed\u30fc\u30bd\u30f3", "brand:wikidata": "Q1557223", "brand:wikipedia": "ja:\u30ed\u30fc\u30bd\u30f3", "name": "\u30ed\u30fc\u30bd\u30f3", "name:en": "Lawson", "name:ja": "\u30ed\u30fc\u30bd\u30f3", "name:ja_rm": "R\u014dson", "name:ko": "\ub85c\uc190", "shop": "convenience"}}, {"type": "node", "id": 697340101, "lat": 33.5394594, "lon": 130.4402394, "tags": {"brand": "\u30ed\u30fc\u30bd\u30f3", "brand:en": "LAWSON", "brand:ja": "\u30ed\u30fc\u30bd\u30f3", "brand:wikidata": "Q1557223", "brand:wikipedia": "ja:\u30ed\u30fc\u30bd\u30f3", "name": "\u30ed\u30fc\u30bd\u30f3", "name:en": "Lawson", "name:ja": "\u30ed\u30fc\u30bd\u30f3", "name:ja_rm": "R\u014dson", "name:ko": "\ub85c\uc190", "shop": "convenience"}}, {"type": "node", "id": 705059464, "lat": 33.5428149, "lon": 130.4340135, "tags": {"name": "\u30de\u30eb\u30ad\u30e7\u30a6", "shop": "supermarket"}}, {"type": "node", "id": 707596108, "lat": 33.5366121, "lon": 130.4703253, "tags": {"name": "\u30ed\u30fc\u30bd\u30f3\u6625\u65e5\u539f\u5317\u753a\u5e97", "name:ko": "\ub85c\uc190", "shop": "convenience"}}, {"type": "node", "id": 718529634, "lat": 33.5381183, "lon": 130.4759776, "tags": {"addr:block_number": "1", "addr:city": "\u5927\u91ce\u57ce\u5e02", "addr:country": "JP", "addr:housenumber": "1", "addr:neighbourhood": "4", "addr:postcode": "816-0935", "addr:province": "\u798f\u5ca1\u770c", "addr:quarter": "\u9326\u753a", "branch:en": "Onojo", "brand:wikipedia": "ja:\u30a4\u30aa\u30f3 (\u5e97\u8217\u30d6\u30e9\u30f3\u30c9)", "name": "\u30a4\u30aa\u30f3\u5927\u91ce\u57ce", "shop": "supermarket"}}, {"type": "node", "id": 718552652, "lat": 33.5465732, "lon": 130.4451826, "tags": {"amenity": "fast_food", "brand": "\u30de\u30af\u30c9\u30ca\u30eb\u30c9", "brand:en": "McDonald's", "brand:ja": "\u30de\u30af\u30c9\u30ca\u30eb\u30c9", "brand:wikidata": "Q38076", "brand:wikipedia": "ja:\u30de\u30af\u30c9\u30ca\u30eb\u30c9", "cuisine": "burger", "name": "\u30de\u30af\u30c9\u30ca\u30eb\u30c9", "name:en": "McDonald's", "name:ja": "\u30de\u30af\u30c9\u30ca\u30eb\u30c9", "name:ja_rm": "Makudonarudo", "name:ko": "\ub9e5\ub3c4\ub0a0\ub4dc", "takeaway": "yes"}}, {"type": "node", "id": 765568583, "lat": 33.5280917, "lon": 130.4801521, "tags": {"brand": "\u30bb\u30d6\u30f3-\u30a4\u30ec\u30d6\u30f3", "brand:en": "7-Eleven", "brand:ja": "\u30bb\u30d6\u30f3-\u30a4\u30ec\u30d6\u30f3", "brand:wikidata": "Q259340", "brand:wikipedia": "en:7-Eleven", "name": "\u30bb\u30d6\u30f3-\u30a4\u30ec\u30d6\u30f3", "name:en": "7-Eleven", "name:ja": "\u30bb\u30d6\u30f3-\u30a4\u30ec\u30d6\u30f3", "name:ja_rm": "Sebun Irebun", "name:ko": "\uc138\ube10\uc77c\ub808\ube10", "official_name:en": "Seven-Eleven", "shop": "convenience"}}, {"type": "node", "id": 766763060, "lat": 33.525527, "lon": 130.4795263, "tags": {"name": "\u5927\u91ce\u57ce", "name:en": "Onojo", "name:ja": "\u5927\u91ce\u57ce", "name:ko": "\uc624\ub178\uc870", "operator": "\u4e5d\u5dde\u65c5\u5ba2\u9244\u9053", "operator:ja": "\u4e5d\u5dde\u65c5\u5ba2\u9244\u9053", "public_transport": "station", "railway": "station", "wikidata": "Q5359644", "wikipedia": "ja:\u5927\u91ce\u57ce\u99c5"}}, {"type": "node", "id": 766973807, "lat": 33.4963998, "lon": 130.5221372, "tags": {"name": "\u7d2b", "name:en": "Murasaki", "name:ja": "\u7d2b", "name:ko": "\ubb34\ub77c\uc0ac\ud0a4", "network": "\u897f\u65e5\u672c\u9244\u9053\u5929\u795e\u5927\u725f\u7530\u7dda", "operator": "\u897f\u65e5\u672c\u9244\u9053", "public_transport": "station", "railway": "station", "wheelchair": "yes", "wikidata": "Q6937369", "wikipedia": "ja:\u7d2b\u99c5"}}, {"type": "node", "id": 767175960, "lat": 33.5178457, "lon": 130.4901901, "tags": {"name": "\u6c34\u57ce", "name:de": "Mizuki", "name:en": "Mizuki", "name:ja": "\u6c34\u57ce", "name:ko": "\ubbf8\uc988\ud0a4", "operator": "\u4e5d\u5dde\u65c5\u5ba2\u9244\u9053", "operator:ja": "\u4e5d\u5dde\u65c5\u5ba2\u9244\u9053", "public_transport": "station", "railway": "station", "wikidata": "Q5359425", "wikipedia": "ja:\u6c34\u57ce\u99c5"}}, {"type": "node", "id": 770457342, "lat": 33.5169213, "lon": 130.4713069, "tags": {"name": "ACROSSMALL \u6625\u65e5", "name:en": "ACROSSMALL KASUGA", "name:ja": "ACROSSMALL \u6625\u65e5", "phone": "0922840855", "shop": "supermarket", "website": "https://kasuga.acrossmall.jp/", "wikidata": "Q105641755", "wikipedia": "ja:\u30a2\u30af\u30ed\u30b9\u30e2\u30fc\u30eb\u6625\u65e5"}}, {"type": "node", "id": 772486285, "lat": 33.5350966, "lon": 130.4688631, "tags": {"name": "\u6625\u65e5", "name:en": "Kasuga", "name:ja": "\u6625\u65e5", "name:ko": "\uac00\uc2a4\uac00", "operator": "\u4e5d\u5dde\u65c5\u5ba2\u9244\u9053", "operator:ja": "\u4e5d\u5dde\u65c5\u5ba2\u9244\u9053", "public_transport": "station", "railway": "station", "wikidata": "Q5359417", "wikipedia": "ja:\u6625\u65e5\u99c5 (\u798f\u5ca1\u770c)"}}, {"type": "node", "id": 775426164, "lat": 33.5382137, "lon": 130.4801268, "tags": {"brand": "\u30d5\u30a1\u30df\u30ea\u30fc\u30de\u30fc\u30c8", "brand:en": "FamilyMart", "brand:ja": "\u30d5\u30a1\u30df\u30ea\u30fc\u30de\u30fc\u30c8", "brand:wikidata": "Q1191685", "brand:wikipedia": "en:FamilyMart", "name": "\u30d5\u30a1\u30df\u30ea\u30fc\u30de\u30fc\u30c8", "name:en": "FamilyMart", "name:ja": "\u30d5\u30a1\u30df\u30ea\u30fc\u30de\u30fc\u30c8", "name:ja_rm": "Famir\u012b Mato", "shop": "convenience"}}, {"type": "node", "id": 775426165, "lat": 33.5324198, "lon": 130.4849711, "tags": {"amenity": "fast_food", "brand": "\u30de\u30af\u30c9\u30ca\u30eb\u30c9", "brand:en": "McDonald's", "brand:ja": "\u30de\u30af\u30c9\u30ca\u30eb\u30c9", "brand:wikidata": "Q38076", "brand:wikipedia": "ja:\u30de\u30af\u30c9\u30ca\u30eb\u30c9", "cuisine": "burger", "name": "\u30de\u30af\u30c9\u30ca\u30eb\u30c9", "name:en": "McDonald's", "name:ja": "\u30de\u30af\u30c9\u30ca\u30eb\u30c9", "name:ja_rm": "Makudonarudo", "name:ko": "\ub9e5\ub3c4\ub0a0\ub4dc", "takeaway": "yes"}}, {"type": "node", "id": 777609461, "lat": 33.551457, "lon": 130.4435148, "tags": {"amenity": "fast_food", "brand": "\u30de\u30af\u30c9\u30ca\u30eb\u30c9", "brand:en": "McDonald's", "brand:ja": "\u30de\u30af\u30c9\u30ca\u30eb\u30c9", "brand:wikidata": "Q38076", "brand:wikipedia": "ja:\u30de\u30af\u30c9\u30ca\u30eb\u30c9", "cuisine": "burger", "name": "\u30de\u30af\u30c9\u30ca\u30eb\u30c9", "name:en": "McDonald's", "name:ja": "\u30de\u30af\u30c9\u30ca\u30eb\u30c9", "name:ja_rm": "Makudonarudo", "name:ko": "\ub9e5\ub3c4\ub0a0\ub4dc", "takeaway": "yes"}}, {"type": "node", "id": 791470777, "lat": 33.5302029, "lon": 130.4625582, "tags": {"brand": "\u30bb\u30d6\u30f3-\u30a4\u30ec\u30d6\u30f3", "brand:en": "7-Eleven", "brand:ja": "\u30bb\u30d6\u30f3-\u30a4\u30ec\u30d6\u30f3", "brand:wikidata": "Q259340", "brand:wikipedia": "en:7-Eleven", "name": "\u30bb\u30d6\u30f3-\u30a4\u30ec\u30d6\u30f3", "name:en": "7-Eleven", "name:ja": "\u30bb\u30d6\u30f3-\u30a4\u30ec\u30d6\u30f3", "name:ja_rm": "Sebun Irebun", "name:ko": "\uc138\ube10\uc77c\ub808\ube10", "official_name:en": "Seven-Eleven", "shop": "convenience"}}, {"type": "node", "id": 791470783, "lat": 33.5445589, "lon": 130.4591468, "tags": {"brand": "\u30bb\u30d6\u30f3-\u30a4\u30ec\u30d6\u30f3", "brand:en": "7-Eleven", "brand:ja": "\u30bb\u30d6\u30f3-\u30a4\u30ec\u30d6\u30f3", "brand:wikidata": "Q259340", "brand:wikipedia": "en:7-Eleven", "name": "\u30bb\u30d6\u30f3-\u30a4\u30ec\u30d6\u30f3", "name:en": "7-Eleven", "name:ja": "\u30bb\u30d6\u30f3-\u30a4\u30ec\u30d6\u30f3", "name:ja_rm": "Sebun Irebun", "name:ko": "\uc138\ube10\uc77c\ub808\ube10", "official_name:en": "Seven-Eleven", "shop": "convenience"}}, {"type": "node", "id": 791470828, "lat": 33.5432068, "lon": 130.4791676, "tags": {"name": "\u30c0\u30a4\u30ec\u30c3\u30af\u30b9\u5927\u91ce\u57ce\u5e97", "shop": "supermarket"}}, {"type": "node", "id": 791470845, "lat": 33.5345772, "lon": 130.4671376, "tags": {"brand": "\u30ed\u30fc\u30bd\u30f3", "brand:en": "LAWSON", "brand:ja": "\u30ed\u30fc\u30bd\u30f3", "brand:wikidata": "Q1557223", "brand:wikipedia": "ja:\u30ed\u30fc\u30bd\u30f3", "name": "\u30ed\u30fc\u30bd\u30f3", "name:en": "Lawson", "name:ja": "\u30ed\u30fc\u30bd\u30f3", "name:ja_rm": "R\u014dson", "name:ko": "\ub85c\uc190", "shop": "convenience"}}, {"type": "node", "id": 803992898, "lat": 33.5170541, "lon": 130.4704953, "tags": {"amenity": "cafe", "brand": "\u73c8\u7432\u9928", "brand:en": "Kohikan", "brand:ja": "\u73c8\u7432\u9928", "brand:wikidata": "Q11573290", "cuisine": "coffee_shop", "name": "\u73c8\u7432\u9928", "name:en": "Kohikan", "name:ja": "\u73c8\u7432\u9928", "name:ja_rm": "Kohi-kan", "takeaway": "yes"}}, {"type": "node", "id": 803992899, "lat": 33.5161775, "lon": 130.4712812, "tags": {"amenity": "fast_food", "brand": "\u30ed\u30c3\u30c6\u30ea\u30a2", "brand:en": "Lotteria", "brand:ja": "\u30ed\u30c3\u30c6\u30ea\u30a2", "brand:wikidata": "Q249525", "cuisine": "burger", "name": "\u30ed\u30c3\u30c6\u30ea\u30a2", "name:en": "Lotteria", "name:ja": "\u30ed\u30c3\u30c6\u30ea\u30a2", "name:ja_rm": "Rotteria", "takeaway": "yes"}}, {"type": "node", "id": 804619887, "lat": 33.5050059, "lon": 130.4807808, "tags": {"name": "\u30c1\u30de\u30ad\u30f3\u30b0", "shop": "supermarket"}}, {"type": "node", "id": 804619895, "lat": 33.5048091, "lon": 130.4807196, "tags": {"brand": "7 ELEVEN", "name": "\u30bb\u30d6\u30f3-\u30a4\u30ec\u30d6\u30f3", "name:en": "Seven-Eleven", "name:ja": "\u30bb\u30d6\u30f3-\u30a4\u30ec\u30d6\u30f3", "name:ja_rm": "Sebun Irebun", "name:ko": "\uc138\ube10\uc77c\ub808\ube10", "shop": "convenience"}}, {"type": "node", "id": 811225109, "lat": 33.5020348, "lon": 130.4964984, "tags": {"brand": "7 ELEVEN", "name": "\u30bb\u30d6\u30f3-\u30a4\u30ec\u30d6\u30f3", "name:en": "Seven-Eleven", "name:ja": "\u30bb\u30d6\u30f3-\u30a4\u30ec\u30d6\u30f3", "name:ja_rm": "Sebun Irebun", "name:ko": "\uc138\ube10\uc77c\ub808\ube10", "shop": "convenience"}}, {"type": "node", "id": 811225128, "lat": 33.4400646, "lon": 130.6265376, "tags": {"brand": "7 ELEVEN", "name": "\u30bb\u30d6\u30f3-\u30a4\u30ec\u30d6\u30f3", "name:en": "Seven-Eleven", "name:ja": "\u30bb\u30d6\u30f3-\u30a4\u30ec\u30d6\u30f3", "name:ja_rm": "Sebun Irebun", "name:ko": "\uc138\ube10\uc77c\ub808\ube10", "shop": "convenience"}}, {"type": "node", "id": 815317997, "lat": 33.5331545, "lon": 130.4597025, "tags": {"amenity": "fast_food", "brand": "\u5409\u91ce\u5bb6", "brand:en": "Yoshinoya", "brand:ja": "\u5409\u91ce\u5bb6", "brand:wikidata": "Q776272", "brand:wikipedia": "ja:\u5409\u91ce\u5bb6", "cuisine": "beef_bowl", "name": "\u5409\u91ce\u5bb6", "name:en": "Yoshinoya", "name:ja": "\u5409\u91ce\u5bb6", "name:ja_rm": "Yoshinoya", "takeaway": "yes"}}, {"type": "node", "id": 836108044, "lat": 33.4976049, "lon": 130.5048054, "tags": {"amenity": "fast_food", "branch": "\u5929\u62dd\u5742\u5e97", "cuisine": "burger", "name": "\u30de\u30af\u30c9\u30ca\u30eb\u30c9 \u5929\u62dd\u5742\u5e97"}}, {"type": "node", "id": 1852199432, "lat": 33.5425988, "lon": 130.4607072, "tags": {"brand": "\u30ed\u30fc\u30bd\u30f3", "brand:en": "LAWSON", "brand:ja": "\u30ed\u30fc\u30bd\u30f3", "brand:wikidata": "Q1557223", "brand:wikipedia": "ja:\u30ed\u30fc\u30bd\u30f3", "name": "\u30ed\u30fc\u30bd\u30f3", "name:en": "Lawson", "name:ja": "\u30ed\u30fc\u30bd\u30f3", "name:ja_rm": "R\u014dson", "name:ko": "\ub85c\uc190", "shop": "convenience"}}, {"type": "node", "id": 1950859183, "lat": 33.5450011, "lon": 130.4703724, "tags": {"brand": "\u30ed\u30fc\u30bd\u30f3", "brand:en": "LAWSON", "brand:ja": "\u30ed\u30fc\u30bd\u30f3", "brand:wikidata": "Q1557223", "brand:wikipedia": "ja:\u30ed\u30fc\u30bd\u30f3", "name": "\u30ed\u30fc\u30bd\u30f3", "name:en": "Lawson", "name:ja": "\u30ed\u30fc\u30bd\u30f3", "name:ja_rm": "R\u014dson", "name:ko": "\ub85c\uc190", "shop": "convenience"}}, {"type": "node", "id": 2009677114, "lat": 33.5387238, "lon": 130.4765375, "tags": {"amenity": "fast_food", "brand": "\u304b\u3063\u3071\u5bff\u53f8", "brand:en": "Kappa Sushi", "brand:ja": "\u304b\u3063\u3071\u5bff\u53f8", "brand:wikidata": "Q11263916", "brand:wikipedia": "ja:\u304b\u3063\u3071\u5bff\u53f8", "cuisine": "sushi", "name": "\u304b\u3063\u3071\u5bff\u53f8", "name:en": "Kappa Sushi", "name:ja": "\u304b\u3063\u3071\u5bff\u53f8", "name:ja_rm": "Kappa-zushi", "source": "Bing", "takeaway": "yes"}}, {"type": "node", "id": 2009702422, "lat": 33.5309489, "lon": 130.4617003, "tags": {"alt_name:en": "Kentucky Fried Chicken", "amenity": "fast_food", "brand": "\u30b1\u30f3\u30bf\u30c3\u30ad\u30fc\u30d5\u30e9\u30a4\u30c9\u30c1\u30ad\u30f3", "brand:en": "KFC", "brand:ja": "\u30b1\u30f3\u30bf\u30c3\u30ad\u30fc\u30d5\u30e9\u30a4\u30c9\u30c1\u30ad\u30f3", "brand:wikidata": "Q524757", "brand:wikipedia": "ja:KFC\u30b3\u30fc\u30dd\u30ec\u30fc\u30b7\u30e7\u30f3", "cuisine": "chicken", "name": "\u30b1\u30f3\u30bf\u30c3\u30ad\u30fc\u30d5\u30e9\u30a4\u30c9\u30c1\u30ad\u30f3", "name:en": "KFC", "name:ja": "\u30b1\u30f3\u30bf\u30c3\u30ad\u30fc\u30d5\u30e9\u30a4\u30c9\u30c1\u30ad\u30f3", "name:ja_rm": "Kentakki Furaidochikin", "source": "Bing", "takeaway": "yes"}}, {"type": "node", "id": 2009720102, "lat": 33.538063, "lon": 130.4763128, "tags": {"amenity": "restaurant", "branch": "\u30a4\u30aa\u30f3\u5927\u91ce\u57ce\u5e97", "brand": "\u3084\u3088\u3044\u8ed2", "brand:en": "Yayoiken", "brand:ja": "\u3084\u3088\u3044\u8ed2", "brand:wikidata": "Q11280577", "brand:wikipedia": "ja:\u3084\u3088\u3044\u8ed2", "cuisine": "japanese", "name": "\u3084\u3088\u3044\u8ed2", "name:en": "Yayoiken", "name:ja": "\u3084\u3088\u3044\u8ed2", "name:ja_rm": "Yayoiken"}}, {"type": "node", "id": 2009720116, "lat": 33.5379291, "lon": 130.4763387, "tags": {"amenity": "fast_food", "brand:wikipedia": "ja:\u30de\u30af\u30c9\u30ca\u30eb\u30c9", "cuisine": "burger", "name": "\u30de\u30af\u30c9\u30ca\u30eb\u30c9 \u30a4\u30aa\u30f3\u5927\u91ce\u57ce\u5e97", "name:ja_rm": "Makudonarudo", "name:ko": "\ub9e5\ub3c4\ub0a0\ub4dc"}}, {"type": "node", "id": 2104549784, "lat": 33.4951032, "lon": 130.5186294, "tags": {"addr:city": "\u7b51\u7d2b\u91ce\u5e02", "addr:country": "JP", "addr:housenumber": "1-1", "addr:street": "\u4e8c\u65e5\u5e02\u4e2d\u592e\u4e00\u4e01\u76ee", "branch": "JR\u4e8c\u65e5\u5e02\u5e97", "brand": "\u30d5\u30a1\u30df\u30ea\u30fc\u30de\u30fc\u30c8", "brand:en": "FamilyMart", "brand:ja": "\u30d5\u30a1\u30df\u30ea\u30fc\u30de\u30fc\u30c8", "brand:wikidata": "Q1191685", "name": "\u30d5\u30a1\u30df\u30ea\u30fc\u30de\u30fc\u30c8", "name:en": "FamilyMart", "name:ja": "\u30d5\u30a1\u30df\u30ea\u30fc\u30de\u30fc\u30c8", "phone": "092-918-1610", "shop": "convenience", "toilets:wheelchair": "no", "wheelchair": "yes"}}, {"type": "node", "id": 2181384962, "lat": 33.5520594, "lon": 130.4436141, "tags": {"addr:city": "\u798f\u5ca1\u5e02\u5357\u533a", "addr:country": "JP", "addr:housenumber": "40-10", "addr:street": "\u4e95\u5c3b\u4e00\u4e01\u76ee", "branch": "\u4e95\u5c3b\u99c5\u524d\u5e97", "branch:en": "Ijiri Station", "brand": "LAWSON+\u30dd\u30d7\u30e9", "brand:en": "LAWSON+Poplar", "brand:ja": "\u30ed\u30fc\u30bd\u30f3+\u30dd\u30d7\u30e9", "brand:wikidata": "Q116957010", "name": "\u30ed\u30fc\u30bd\u30f3\u30fb\u30dd\u30d7\u30e9", "name:en": "Lawson Poplar", "name:ja": "\u30ed\u30fc\u30bd\u30f3\u30fb\u30dd\u30d7\u30e9", "phone": "092-502-3838", "shop": "convenience"}}, {"type": "node", "id": 2189607675, "lat": 33.5515752, "lon": 130.4478457, "tags": {"addr:city": "\u798f\u5ca1\u5e02\u5357\u533a", "addr:country": "JP", "addr:housenumber": "21-21", "addr:street": "\u4e95\u5c3b\u4e09\u4e01\u76ee", "branch": "\u798f\u5ca1\u4e95\u5c3b\u4e09\u4e01\u76ee\u5e97", "branch:en": "Fukuoka Ijiri 3cho-me", "brand": "\u30bb\u30d6\u30f3-\u30a4\u30ec\u30d6\u30f3", "brand:en": "7-Eleven", "brand:ja": "\u30bb\u30d6\u30f3-\u30a4\u30ec\u30d6\u30f3", "brand:wikidata": "Q259340", "brand:wikipedia": "en:7-Eleven", "name": "\u30bb\u30d6\u30f3-\u30a4\u30ec\u30d6\u30f3", "name:en": "7-Eleven", "name:ja": "\u30bb\u30d6\u30f3-\u30a4\u30ec\u30d6\u30f3", "official_name:en": "Seven-Eleven", "phone": "092-593-7378", "shop": "convenience"}}, {"type": "node", "id": 3014096433, "lat": 33.499175, "lon": 130.509723, "tags": {"addr:city": "\u7b51\u7d2b\u91ce\u5e02 (Chikushino)", "addr:street": "\u677f\u4ed8\u725b\u9838\u7b51\u7d2b\u91ce\u7dda", "name": "\u30df\u30cb\u30b9\u30c8\u30c3\u30d7 \u7b51\u7d2b\u91ce\u5854\u539f\u5e97", "name:ko": "\ubbf8\ub2c8\uc2a4\ud1b1", "shop": "convenience"}}, {"type": "node", "id": 3127970365, "lat": 33.3764464, "lon": 130.7540836, "tags": {"shop": "convenience"}}, {"type": "node", "id": 3170253250, "lat": 33.5555047, "lon": 130.4449069, "tags": {"branch": "\u4e95\u5c3b\u4e8c\u4e01\u76ee\u5e97", "brand": "\u30bb\u30d6\u30f3-\u30a4\u30ec\u30d6\u30f3", "brand:en": "7-Eleven", "brand:ja": "\u30bb\u30d6\u30f3-\u30a4\u30ec\u30d6\u30f3", "brand:wikidata": "Q259340", "name": "\u30bb\u30d6\u30f3-\u30a4\u30ec\u30d6\u30f3", "name:en": "7-Eleven", "name:ja": "\u30bb\u30d6\u30f3-\u30a4\u30ec\u30d6\u30f3", "official_name:en": "Seven-Eleven", "shop": "convenience"}}, {"type": "node", "id": 3281846137, "lat": 33.5505317, "lon": 130.458031, "tags": {"addr:full": "\u798f\u5ca1\u770c\u798f\u5ca1\u5e02\u535a\u591a\u533a\u4e09\u7b512\u4e01\u76ee15-1", "branch": "\u535a\u591a\u4e09\u7b512\u4e01\u76ee\u5e97", "brand": "\u30bb\u30d6\u30f3-\u30a4\u30ec\u30d6\u30f3", "brand:en": "7-Eleven", "brand:ja": "\u30bb\u30d6\u30f3-\u30a4\u30ec\u30d6\u30f3", "brand:wikidata": "Q259340", "brand:wikipedia": "en:7-Eleven", "level": "0", "name": "\u30bb\u30d6\u30f3-\u30a4\u30ec\u30d6\u30f3", "name:en": "7-Eleven", "name:ja": "\u30bb\u30d6\u30f3-\u30a4\u30ec\u30d6\u30f3", "name:ja_rm": "Sebun Irebun", "name:ko": "\uc138\ube10\uc77c\ub808\ube10", "official_name:en": "Seven-Eleven", "phone": "+81-92-502-3535", "shop": "convenience", "source": "survey, 2015-01-09;receipt"}}, {"type": "node", "id": 4026867098, "lat": 33.5418928, "lon": 130.4604162, "tags": {"internet_access": "yes", "internet_access:fee": "no", "name": "\u5357\u798f\u5ca1", "name:de": "Minami-Fukuoka", "name:en": "Minami Fukuoka", "name:ja": "\u5357\u798f\u5ca1", "name:ko": "\ubbf8\ub098\ubbf8\ud6c4\ucfe0\uc624\uce74", "operator": "\u4e5d\u5dde\u65c5\u5ba2\u9244\u9053", "operator:ja": "\u4e5d\u5dde\u65c5\u5ba2\u9244\u9053", "public_transport": "station", "railway": "station", "wikidata": "Q5359375", "wikipedia": "ja:\u5357\u798f\u5ca1\u99c5"}}, {"type": "node", "id": 4026867150, "lat": 33.5529163, "lon": 130.4489182, "tags": {"name": "\u7b39\u539f", "name:de": "Sasabaru", "name:en": "Sasabaru", "name:ja": "\u7b39\u539f", "name:ko": "\uc0ac\uc0ac\ubc14\ub8e8", "operator": "\u4e5d\u5dde\u65c5\u5ba2\u9244\u9053", "operator:ja": "\u4e5d\u5dde\u65c5\u5ba2\u9244\u9053", "public_transport": "station", "railway": "station", "wikidata": "Q5359670", "wikipedia": "ja:\u7b39\u539f\u99c5"}}, {"type": "node", "id": 4206777191, "lat": 33.5474191, "lon": 130.448909, "tags": {"branch": "\u6625\u65e5\u685c\u30f6\u4e18\u516b\u4e01\u76ee\u5e97", "brand": "\u30d5\u30a1\u30df\u30ea\u30fc\u30de\u30fc\u30c8", "brand:en": "FamilyMart", "brand:ja": "\u30d5\u30a1\u30df\u30ea\u30fc\u30de\u30fc\u30c8", "brand:wikidata": "Q1191685", "brand:wikipedia": "en:FamilyMart", "name": "\u30d5\u30a1\u30df\u30ea\u30fc\u30de\u30fc\u30c8", "name:en": "FamilyMart", "name:ja": "\u30d5\u30a1\u30df\u30ea\u30fc\u30de\u30fc\u30c8", "name:ja-Hira": "\u3055\u3093\u304f\u3059", "name:ja-Latn": "Sankusu", "name:ja_rm": "Sankusu", "shop": "convenience"}}, {"type": "node", "id": 4209491203, "lat": 33.4557908, "lon": 130.5966365, "tags": {"branch": "\u7b51\u524d\u753a\u5f79\u5834\u524d\u5e97", "brand": "7-ELEVEN", "brand:en": "7-ELEVEN", "brand:ja": "\u30bb\u30d6\u30f3-\u30a4\u30ec\u30d6\u30f3", "brand:wikidata": "Q259340", "name": "\u30bb\u30d6\u30f3-\u30a4\u30ec\u30d6\u30f3", "name:en": "7-Eleven", "name:ja": "\u30bb\u30d6\u30f3-\u30a4\u30ec\u30d6\u30f3", "official_name:en": "Seven-Eleven", "shop": "convenience"}}, {"type": "node", "id": 4209493927, "lat": 33.461127, "lon": 130.5856044, "tags": {"name": "\u30df\u30cb\u30b9\u30c8\u30c3\u30d7 \u591c\u9808\u677e\u5ef6\u5e97", "name:en": "MINISTOP", "name:ko": "\ubbf8\ub2c8\uc2a4\ud1b1", "shop": "convenience"}}, {"type": "node", "id": 4359051410, "lat": 33.4081365, "lon": 130.704669, "tags": {"name": "\u30d5\u30a1\u30df\u30ea\u30fc\u30de\u30fc\u30c8 \u7518\u6728\u4e09\u5948\u6728\u5e97", "name:en": "FamilyMart", "shop": "convenience"}}, {"type": "node", "id": 4359052616, "lat": 33.4177458, "lon": 130.6808127, "tags": {"branch": "\u7518\u6728\u67ff\u539f\u5e97", "brand": "7-ELEVEN", "brand:en": "7-ELEVEN", "brand:ja": "\u30bb\u30d6\u30f3-\u30a4\u30ec\u30d6\u30f3", "brand:wikidata": "Q259340", "name": "\u30bb\u30d6\u30f3-\u30a4\u30ec\u30d6\u30f3", "name:en": "7-Eleven", "name:ja": "\u30bb\u30d6\u30f3-\u30a4\u30ec\u30d6\u30f3", "official_name:en": "Seven-Eleven", "shop": "convenience"}}, {"type": "node", "id": 4381049227, "lat": 33.5404758, "lon": 130.4835088, "tags": {"brand": "\u30df\u30cb\u30b9\u30c8\u30c3\u30d7", "brand:en": "Ministop", "brand:ja": "\u30df\u30cb\u30b9\u30c8\u30c3\u30d7", "brand:wikidata": "Q1038929", "brand:wikipedia": "ja:\u30df\u30cb\u30b9\u30c8\u30c3\u30d7", "name": "\u30df\u30cb\u30b9\u30c8\u30c3\u30d7", "name:en": "Ministop", "name:ja": "\u30df\u30cb\u30b9\u30c8\u30c3\u30d7", "name:ja-Hira": "\u307f\u306b\u3059\u3068\u3063\u3077", "name:ja-Latn": "Mini Sutoppu", "name:ja_rm": "Mini Sutoppu", "name:ko": "\ubbf8\ub2c8\uc2a4\ud1b1", "shop": "convenience", "website": "https://www.ministop.co.jp/"}}, {"type": "node", "id": 4846961521, "lat": 33.546835, "lon": 130.443236, "tags": {"addr:street": "\u56fd\u9053202\u53f7\u798f\u5ca1\u5916\u74b0\u72b6\u9053\u8def", "name": "\u30cf\u30ed\u30fc\u30c7\u30a4\u4e95\u5c3b\u5e97", "name:ja": "\u30cf\u30ed\u30fc\u30c7\u30a4\u4e95\u5c3b\u5e97", "shop": "supermarket"}}, {"type": "node", "id": 4869124865, "lat": 33.5423176, "lon": 130.4604142, "tags": {"amenity": "fast_food", "brand": "\u30df\u30b9\u30bf\u30fc\u30c9\u30fc\u30ca\u30c4", "brand:en": "Mister Donut", "brand:ja": "\u30df\u30b9\u30bf\u30fc\u30c9\u30fc\u30ca\u30c4", "brand:wikidata": "Q1065819", "brand:wikipedia": "en:Mister Donut", "cuisine": "donut", "level": "1", "name": "\u30df\u30b9\u30bf\u30fc\u30c9\u30fc\u30ca\u30c4", "name:en": "Mister Donut", "name:ja": "\u30df\u30b9\u30bf\u30fc\u30c9\u30fc\u30ca\u30c4", "name:ja-Hira": "\u307f\u3059\u305f\u30fc\u3069\u30fc\u306a\u3064", "name:ja-Latn": "Misut\u0101 D\u014dnatsu", "name:ja_rm": "Misut\u0101 D\u014dnatsu", "takeaway": "yes"}}, {"type": "node", "id": 4937594783, "lat": 33.5018168, "lon": 130.5173363, "tags": {"branch": "\u897f\u9244\u4e8c\u65e5\u5e02\u99c5\u524d\u5e97", "brand": "7-ELEVEN", "brand:en": "7-ELEVEN", "brand:ja": "\u30bb\u30d6\u30f3-\u30a4\u30ec\u30d6\u30f3", "brand:wikidata": "Q259340", "name": "\u30bb\u30d6\u30f3-\u30a4\u30ec\u30d6\u30f3", "name:en": "7-Eleven", "name:ja": "\u30bb\u30d6\u30f3-\u30a4\u30ec\u30d6\u30f3", "official_name:en": "Seven-Eleven", "shop": "convenience", "source": "Bing"}}, {"type": "node", "id": 4937594788, "lat": 33.5019331, "lon": 130.5177081, "tags": {"branch": "\u897f\u9244\u4e8c\u65e5\u5e02\u99c5\u897f\u53e3\u5e97", "brand": "\u30ed\u30fc\u30bd\u30f3", "brand:en": "LAWSON", "brand:ja": "\u30ed\u30fc\u30bd\u30f3", "brand:wikidata": "Q1557223", "level": "1", "name": "\u30ed\u30fc\u30bd\u30f3", "name:en": "Lawson", "name:ja": "\u30ed\u30fc\u30bd\u30f3", "name:ko": "\ub85c\uc190", "shop": "convenience"}}, {"type": "node", "id": 5046970136, "lat": 33.3545579, "lon": 130.7870528, "tags": {"name": "\u30ed\u30fc\u30bd\u30f3", "name:ko": "\ub85c\uc190", "shop": "supermarket"}}, {"type": "node", "id": 5046970137, "lat": 33.3544588, "lon": 130.7868491, "tags": {"amenity": "restaurant", "cuisine": "japanese", "name": "\u3060\u3054\u6c41\u8336\u5c4b"}}, {"type": "node", "id": 5108491822, "lat": 33.5463874, "lon": 130.4627026, "tags": {"addr:province": "Fukuoka", "addr:suburb": "Hakata", "branch": "\u96d1\u9909\u9688\u5e97", "check_date": "2024-10-25", "name": "\u30de\u30eb\u30ad\u30e7\u30a6", "name:en": "Maryukio", "opening_hours": "09:30-22:00", "payment:cash": "yes", "payment:credit_cards": "yes", "shop": "supermarket"}}, {"type": "node", "id": 5273251722, "lat": 33.5238974, "lon": 130.4590061, "tags": {"name": "\u30b5\u30cb\u30fc\u3061\u304f\u3057\u53f0\u5e97", "name:en": "sunny", "shop": "supermarket"}}, {"type": "node", "id": 5318103095, "lat": 33.5214929, "lon": 130.4900486, "tags": {"branch": "\u4e0b\u5927\u5229\u5e97", "name": "\u3044\u305b\u3084", "shop": "supermarket"}}, {"type": "node", "id": 5326513093, "lat": 33.5132351, "lon": 130.5187363, "tags": {"amenity": "restaurant", "branch": "\u592a\u5bb0\u5e9c\u5e97", "name": "\u3064\u308b\u307f\u4ead", "website": "https://www3.hp-ez.com/hp/turumitei"}}, {"type": "node", "id": 5483894524, "lat": 33.4195412, "lon": 130.6550109, "tags": {"name:en": "Red Cabbage", "shop": "supermarket"}}, {"type": "node", "id": 5694028238, "lat": 33.5418711, "lon": 130.461037, "tags": {"name": "\u30de\u30c3\u30af\u30b9\u30d0\u30ea\u30e5\u30a8\u30af\u30b9\u30d7\u30ec\u30b9", "opening_hours": "24/7", "shop": "supermarket"}}, {"type": "node", "id": 5694028249, "lat": 33.5422281, "lon": 130.4603219, "tags": {"brand": "\u30d5\u30a1\u30df\u30ea\u30fc\u30de\u30fc\u30c8", "brand:en": "FamilyMart", "brand:ja": "\u30d5\u30a1\u30df\u30ea\u30fc\u30de\u30fc\u30c8", "brand:wikidata": "Q1191685", "brand:wikipedia": "en:FamilyMart", "level": "2", "name": "\u30d5\u30a1\u30df\u30ea\u30fc\u30de\u30fc\u30c8", "name:en": "FamilyMart", "name:ja": "\u30d5\u30a1\u30df\u30ea\u30fc\u30de\u30fc\u30c8", "name:ja-Hira": "\u3075\u3041\u307f\u308a\u30fc\u307e\u30fc\u3068", "name:ja-Latn": "Famir\u012b M\u0101to", "shop": "convenience"}}, {"type": "node", "id": 5694028250, "lat": 33.5453976, "lon": 130.4621727, "tags": {"building:levels": "6", "internet_access": "wired", "internet_access:fee": "no", "name": "\u30a8\u30eb\u30ab\u30fc\u30b5\u5357\u798f\u5ca1", "smoking": "isolated", "tourism": "hotel"}}, {"type": "node", "id": 5695611795, "lat": 33.5466365, "lon": 130.4633087, "tags": {"branch": "\u535a\u591a\u9280\u5929\u753a3\u4e01\u76ee\u5e97", "brand": "\u30bb\u30d6\u30f3-\u30a4\u30ec\u30d6\u30f3", "brand:en": "7-Eleven", "brand:ja": "\u30bb\u30d6\u30f3-\u30a4\u30ec\u30d6\u30f3", "brand:wikidata": "Q259340", "brand:wikipedia": "en:7-Eleven", "name": "\u30bb\u30d6\u30f3-\u30a4\u30ec\u30d6\u30f3", "name:en": "7-Eleven", "name:ja": "\u30bb\u30d6\u30f3-\u30a4\u30ec\u30d6\u30f3", "official_name:en": "Seven-Eleven", "shop": "convenience"}}, {"type": "node", "id": 5695611800, "lat": 33.545175, "lon": 130.4646799, "tags": {"amenity": "restaurant", "name": "\u4e00\u54c1\u9999"}}, {"type": "node", "id": 5695611801, "lat": 33.5476164, "lon": 130.4628779, "tags": {"brand": "\u30ed\u30fc\u30bd\u30f3", "brand:en": "LAWSON", "brand:ja": "\u30ed\u30fc\u30bd\u30f3", "brand:wikidata": "Q1557223", "brand:wikipedia": "ja:\u30ed\u30fc\u30bd\u30f3", "name": "\u30ed\u30fc\u30bd\u30f3", "name:en": "Lawson", "name:ja": "\u30ed\u30fc\u30bd\u30f3", "name:ko": "\ub85c\uc190", "shop": "convenience"}}, {"type": "node", "id": 5695616775, "lat": 33.5445888, "lon": 130.4652313, "tags": {"name": "Weekly Inn\u5357\u798f\u5ca1", "tourism": "hotel"}}, {"type": "node", "id": 5875685173, "lat": 33.5030959, "lon": 130.5067054, "tags": {"name": "\u90fd\u5e9c\u697c\u5357", "name:en": "Tofuro-Minami", "name:ja": "\u90fd\u5e9c\u697c\u5357", "name:ko": "\ub3c4\ud6c4\ub85c\ubbf8\ub098\ubbf8", "operator": "\u4e5d\u5dde\u65c5\u5ba2\u9244\u9053", "operator:ja": "\u4e5d\u5dde\u65c5\u5ba2\u9244\u9053", "public_transport": "station", "railway": "station", "wheelchair": "yes", "wikidata": "Q5359542", "wikipedia": "ja:\u90fd\u5e9c\u697c\u5357\u99c5"}}, {"type": "node", "id": 5875685174, "lat": 33.4819426, "lon": 130.5302033, "tags": {"name": "\u5929\u62dd\u5c71", "name:de": "Tenpaizan", "name:en": "Tenpaizan", "name:ja": "\u5929\u62dd\u5c71", "name:ko": "\ub374\ud30c\uc774\uc794", "operator": "\u4e5d\u5dde\u65c5\u5ba2\u9244\u9053", "operator:ja": "\u4e5d\u5dde\u65c5\u5ba2\u9244\u9053", "public_transport": "station", "railway": "station", "wheelchair": "yes", "wikidata": "Q5359403", "wikipedia": "ja:\u5929\u62dd\u5c71\u99c5"}}, {"type": "node", "id": 6139733585, "lat": 33.5556974, "lon": 130.4294608, "tags": {"amenity": "restaurant", "name:en": "Yakitori Daishizen"}}, {"type": "node", "id": 6154596912, "lat": 33.5382642, "lon": 130.4762418, "tags": {"addr:block_number": "1", "addr:city": "\u5927\u91ce\u57ce\u5e02", "addr:country": "JP", "addr:housenumber": "1", "addr:neighbourhood": "4", "addr:postcode": "816-0935", "addr:province": "\u798f\u5ca1\u770c", "addr:quarter": "\u9326\u753a", "amenity": "restaurant", "brand:wikipedia": "en:Saizeriya", "contact:phone": "092-588-6330", "contact:website": "https://www.saizeriya.co.jp/restaurant/shop_detail.php?cd=995", "cuisine": "italian", "name": "\u30b5\u30a4\u30bc\u30ea\u30e4 \u30a4\u30aa\u30f3\u5927\u91ce\u57ceSC\u5e97", "name:ja_rm": "Saizeriya", "opening_hours": "11:00-22:00", "operator": "\u682a\u5f0f\u4f1a\u793e\u30b5\u30a4\u30bc\u30ea\u30e4", "parking": "yes", "shop_id": "995"}}, {"type": "node", "id": 6469962484, "lat": 33.5520634, "lon": 130.4433399, "tags": {"KSJ2:LIN": "\u5929\u795e\u5927\u725f\u7530\u7dda", "KSJ2:STN": "\u4e95\u5c3b", "name": "\u4e95\u5c3b", "name:en": "Ijiri", "name:ja": "\u4e95\u5c3b", "name:ko": "\uc774\uc9c0\ub9ac", "note": "National-Land Numerical Information (Railway) 2007, MLIT Japan", "note:ja": "\u56fd\u571f\u6570\u5024\u60c5\u5831\uff08\u9244\u9053\u30c7\u30fc\u30bf\uff09\u5e73\u621019\u5e74\u3000\u56fd\u571f\u4ea4\u901a\u7701", "operator": "\u897f\u65e5\u672c\u9244\u9053", "public_transport": "station", "railway": "station", "ref": "T06", "source": "KSJ2", "source_ref": "http://nlftp.mlit.go.jp/ksj/jpgis/datalist/KsjTmplt-N02-v1_1.html", "wikidata": "Q5995184", "wikipedia": "ja:\u4e95\u5c3b\u99c5"}}, {"type": "node", "id": 6590389101, "lat": 33.5168995, "lon": 130.4811701, "tags": {"brand": "\u30bb\u30d6\u30f3-\u30a4\u30ec\u30d6\u30f3", "brand:en": "7-Eleven", "brand:ja": "\u30bb\u30d6\u30f3-\u30a4\u30ec\u30d6\u30f3", "brand:wikidata": "Q259340", "name": "\u30bb\u30d6\u30f3-\u30a4\u30ec\u30d6\u30f3", "name:en": "7-Eleven", "name:ja": "\u30bb\u30d6\u30f3-\u30a4\u30ec\u30d6\u30f3", "official_name:en": "Seven-Eleven", "shop": "convenience"}}, {"type": "node", "id": 6590777321, "lat": 33.5128673, "lon": 130.4690807, "tags": {"amenity": "restaurant", "cuisine": "asian", "name": "\u516b\u4ed9\u95a3"}}, {"type": "node", "id": 6643296206, "lat": 33.5465861, "lon": 130.4659, "tags": {"brand": "\u30bb\u30d6\u30f3-\u30a4\u30ec\u30d6\u30f3", "brand:en": "7-Eleven", "brand:ja": "\u30bb\u30d6\u30f3-\u30a4\u30ec\u30d6\u30f3", "brand:wikidata": "Q259340", "brand:wikipedia": "en:7-Eleven", "name": "\u30bb\u30d6\u30f3-\u30a4\u30ec\u30d6\u30f3", "name:en": "7-Eleven", "name:ja": "\u30bb\u30d6\u30f3-\u30a4\u30ec\u30d6\u30f3", "official_name:en": "Seven-Eleven", "shop": "convenience"}}, {"type": "node", "id": 6894844488, "lat": 33.5425563, "lon": 130.4498971, "tags": {"name": "\u30b5\u30cb\u30fc\u65e5\u306e\u51fa\u753a\u5e97", "name:en": "summy", "shop": "supermarket"}}, {"type": "node", "id": 7081641661, "lat": 33.5557099, "lon": 130.4279885, "tags": {"addr:block_number": "12", "addr:city": "\u798f\u5ca1\u5e02", "addr:housenumber": "28", "addr:neighbourhood": "4\u4e01\u76ee", "addr:postcode": "8150033", "addr:province": "\u798f\u5ca1\u770c", "addr:quarter": "\u5927\u6a4b", "addr:suburb": "\u5357\u533a", "amenity": "restaurant", "cuisine": "chicken", "cuisine:ja": "\u713c\u304d\u9ce5;\u4e00\u54c1\u6599\u7406", "name": "\u81ea\u7531\u9ce5 freebird", "opening_hours": "17:30-01:00", "phone": "092-408-1331"}}, {"type": "node", "id": 7148630027, "lat": 33.5461826, "lon": 130.4569182, "tags": {"brand": "\u30bb\u30d6\u30f3-\u30a4\u30ec\u30d6\u30f3", "brand:en": "7-Eleven", "brand:ja": "\u30bb\u30d6\u30f3-\u30a4\u30ec\u30d6\u30f3", "brand:wikidata": "Q259340", "brand:wikipedia": "en:7-Eleven", "name": "\u30bb\u30d6\u30f3-\u30a4\u30ec\u30d6\u30f3", "name:en": "7-Eleven", "name:ja": "\u30bb\u30d6\u30f3-\u30a4\u30ec\u30d6\u30f3", "official_name:en": "Seven-Eleven", "shop": "convenience"}}, {"type": "node", "id": 7211183385, "lat": 33.5299043, "lon": 130.4815721, "tags": {"addr:postcode": "816-0943", "addr:street": "\u5927\u91ce\u57ce\u5e02\u767d\u6728\u539f3-3-1", "amenity": "cafe", "cuisine": "coffee_shop", "email": "shop@tokado-coffee.com", "name": "\u8c46\u9999\u6d1e\u30b3\u30fc\u30d2\u30fc", "name:en": "TOKADO COFFEE", "opening_hours": "Th-Tu 11:00-19:00", "operator": "\u5f8c\u85e4 \u76f4\u7d00(Goto Naoki)", "phone": "0925025033", "website": "https://tokado-coffee.shop-pro.jp/"}}, {"type": "node", "id": 7230273022, "lat": 33.5461382, "lon": 130.4766492, "tags": {"brand": "\u30d5\u30a1\u30df\u30ea\u30fc\u30de\u30fc\u30c8", "brand:en": "FamilyMart", "brand:ja": "\u30d5\u30a1\u30df\u30ea\u30fc\u30de\u30fc\u30c8", "brand:wikidata": "Q1191685", "brand:wikipedia": "en:FamilyMart", "name": "\u30d5\u30a1\u30df\u30ea\u30fc\u30de\u30fc\u30c8", "name:en": "FamilyMart", "name:ja": "\u30d5\u30a1\u30df\u30ea\u30fc\u30de\u30fc\u30c8", "shop": "convenience"}}, {"type": "node", "id": 7230335299, "lat": 33.5467031, "lon": 130.469623, "tags": {"brand": "\u30df\u30cb\u30b9\u30c8\u30c3\u30d7", "brand:en": "Ministop", "brand:ja": "\u30df\u30cb\u30b9\u30c8\u30c3\u30d7", "brand:wikidata": "Q1038929", "brand:wikipedia": "ja:\u30df\u30cb\u30b9\u30c8\u30c3\u30d7", "name": "\u30df\u30cb\u30b9\u30c8\u30c3\u30d7", "name:en": "Ministop", "name:ja": "\u30df\u30cb\u30b9\u30c8\u30c3\u30d7", "shop": "convenience"}}, {"type": "node", "id": 7234697552, "lat": 33.5366434, "lon": 130.4891901, "tags": {"brand": "\u30ed\u30fc\u30bd\u30f3", "brand:en": "LAWSON", "brand:ja": "\u30ed\u30fc\u30bd\u30f3", "brand:wikidata": "Q1557223", "brand:wikipedia": "ja:\u30ed\u30fc\u30bd\u30f3", "name": "\u30ed\u30fc\u30bd\u30f3", "name:en": "Lawson", "name:ja": "\u30ed\u30fc\u30bd\u30f3", "shop": "convenience"}}, {"type": "node", "id": 7262800575, "lat": 33.5252026, "lon": 130.4743378, "tags": {"brand": "\u30bb\u30d6\u30f3-\u30a4\u30ec\u30d6\u30f3", "brand:en": "7-Eleven", "brand:ja": "\u30bb\u30d6\u30f3-\u30a4\u30ec\u30d6\u30f3", "brand:wikidata": "Q259340", "brand:wikipedia": "en:7-Eleven", "name": "\u30bb\u30d6\u30f3-\u30a4\u30ec\u30d6\u30f3", "name:en": "7-Eleven", "name:ja": "\u30bb\u30d6\u30f3-\u30a4\u30ec\u30d6\u30f3", "official_name:en": "Seven-Eleven", "shop": "convenience"}}, {"type": "node", "id": 7266195949, "lat": 33.5367966, "lon": 130.4914618, "tags": {"brand": "\u30bb\u30d6\u30f3-\u30a4\u30ec\u30d6\u30f3", "brand:en": "7-Eleven", "brand:ja": "\u30bb\u30d6\u30f3-\u30a4\u30ec\u30d6\u30f3", "brand:wikidata": "Q259340", "brand:wikipedia": "en:7-Eleven", "name": "\u30bb\u30d6\u30f3-\u30a4\u30ec\u30d6\u30f3", "name:en": "7-Eleven", "name:ja": "\u30bb\u30d6\u30f3-\u30a4\u30ec\u30d6\u30f3", "official_name:en": "Seven-Eleven", "shop": "convenience"}}, {"type": "node", "id": 7448382366, "lat": 33.5379878, "lon": 130.4714399, "tags": {"name": "\u30b5\u30cb\u30fc\u6625\u65e5\u539f\u5e97", "shop": "supermarket"}}, {"type": "node", "id": 7798035867, "lat": 33.4839356, "lon": 130.5326394, "tags": {"KSJ2:LIN": "\u5929\u795e\u5927\u725f\u7530\u7dda", "KSJ2:STN": "\u671d\u5009\u8857\u9053", "name": "\u671d\u5009\u8857\u9053", "name:en": "Asakura Kaido", "name:ja": "\u671d\u5009\u8857\u9053", "name:ko": "\uc544\uc0ac\ucfe0\ub77c\uac00\uc774\ub3c4", "network": "\u897f\u65e5\u672c\u9244\u9053\u5929\u795e\u5927\u725f\u7530\u7dda", "operator": "\u897f\u65e5\u672c\u9244\u9053", "public_transport": "station", "railway": "station", "source": "GSImaps/std", "wikidata": "Q4803445", "wikipedia": "ja:\u671d\u5009\u8857\u9053\u99c5"}}, {"type": "node", "id": 7798593158, "lat": 33.5380094, "lon": 130.4730964, "tags": {"KSJ2:LIN": "\u5929\u795e\u5927\u725f\u7530\u7dda", "KSJ2:STN": "\u6625\u65e5\u539f", "name": "\u6625\u65e5\u539f", "name:en": "Kasugabaru", "name:ja": "\u6625\u65e5\u539f", "name:ko": "\uac00\uc2a4\uac00\ubc14\ub8e8", "note": "National-Land Numerical Information (Railway) 2007, MLIT Japan", "note:ja": "\u56fd\u571f\u6570\u5024\u60c5\u5831\uff08\u9244\u9053\u30c7\u30fc\u30bf\uff09\u5e73\u621019\u5e74\u3000\u56fd\u571f\u4ea4\u901a\u7701", "operator": "\u897f\u65e5\u672c\u9244\u9053", "public_transport": "station", "railway": "station", "ref": "T09", "source": "KSJ2", "source_ref": "http://nlftp.mlit.go.jp/ksj/jpgis/datalist/KsjTmplt-N02-v1_1.html", "wikidata": "Q6374872", "wikipedia": "ja:\u6625\u65e5\u539f\u99c5"}}, {"type": "node", "id": 7798593163, "lat": 33.547399, "lon": 130.4618515, "tags": {"KSJ2:LIN": "\u5929\u795e\u5927\u725f\u7530\u7dda", "KSJ2:STN": "\u96d1\u9909\u9688", "addr:province": "Fukuoka, \u798f\u5ca1", "addr:suburb": "Hakata", "internet_access": "no", "name": "\u96d1\u9909\u9688", "name:en": "Zasshonokuma", "name:ja": "\u96d1\u9909\u9688", "name:ko": "\uc7a3\uc1fc\ub178\ucfe0\ub9c8", "name:ru": "\u0421\u0442\u0430\u043d\u0446\u0438\u044f \u0417\u0430\u0449\u0451\u043d\u043e\u043a\u0443\u043c\u0430", "network": "\u897f\u9244\u5929\u795e\u5927\u725f\u7530\u7dda", "note": "National-Land Numerical Information (Railway) 2007, MLIT Japan", "note:ja": "\u56fd\u571f\u6570\u5024\u60c5\u5831\uff08\u9244\u9053\u30c7\u30fc\u30bf\uff09\u5e73\u621019\u5e74\u3000\u56fd\u571f\u4ea4\u901a\u7701", "operator": "\u897f\u65e5\u672c\u9244\u9053", "public_transport": "station", "railway": "station", "ref": "T07", "source": "KSJ2;local knowledge", "source_ref": "http://nlftp.mlit.go.jp/ksj/jpgis/datalist/KsjTmplt-N02-v1_1.html", "wikidata": "Q8067061", "wikipedia": "ja:\u96d1\u9909\u9688\u99c5"}}, {"type": "node", "id": 7805687682, "lat": 33.528286, "lon": 130.4831101, "tags": {"KSJ2:LIN": "\u5929\u795e\u5927\u725f\u7530\u7dda", "KSJ2:STN": "\u767d\u6728\u539f", "name": "\u767d\u6728\u539f", "name:en": "Shirakibaru", "name:ja": "\u767d\u6728\u539f", "name:ko": "\uc2dc\ub77c\ud0a4\ubc14\ub8e8", "network": "\u897f\u65e5\u672c\u9244\u9053\u5929\u795e\u5927\u725f\u7530\u7dda", "note": "National-Land Numerical Information (Railway) 2007, MLIT Japan", "note:ja": "\u56fd\u571f\u6570\u5024\u60c5\u5831\uff08\u9244\u9053\u30c7\u30fc\u30bf\uff09\u5e73\u621019\u5e74\u3000\u56fd\u571f\u4ea4\u901a\u7701", "operator": "\u897f\u65e5\u672c\u9244\u9053", "public_transport": "station", "railway": "station", "source": "KSJ2", "source_ref": "http://nlftp.mlit.go.jp/ksj/jpgis/datalist/KsjTmplt-N02-v1_1.html", "wikidata": "Q7498250", "wikipedia": "ja:\u767d\u6728\u539f\u99c5"}}, {"type": "node", "id": 7815151176, "lat": 33.4773114, "lon": 130.5738084, "tags": {"KSJ2:LIN": "\u7b51\u8c4a\u7dda", "KSJ2:STN": "\u7b51\u524d\u5c71\u5bb6", "name": "\u7b51\u524d\u5c71\u5bb6", "name:en": "Chikuzen Yamae", "name:ja": "\u7b51\u524d\u5c71\u5bb6", "name:ja-Hira": "\u3061\u304f\u305c\u3093\u3084\u307e\u3048\u3048\u304d", "name:ko": "\uc9c0\ucfe0\uc820\uc57c\ub9c8\uc5d0", "note": "National-Land Numerical Information (Railway) 2007, MLIT Japan", "note:ja": "\u56fd\u571f\u6570\u5024\u60c5\u5831\uff08\u9244\u9053\u30c7\u30fc\u30bf\uff09\u5e73\u621019\u5e74 \u56fd\u571f\u4ea4\u901a\u7701", "public_transport": "station", "railway": "station", "source": "KSJ2", "source_ref": "http://nlftp.mlit.go.jp/ksj/jpgis/datalist/KsjTmplt-N02-v1_1.html", "wikidata": "Q5097536", "wikipedia": "ja:\u7b51\u524d\u5c71\u5bb6\u99c5"}}, {"type": "node", "id": 7816830158, "lat": 33.5021529, "lon": 130.5177779, "tags": {"KSJ2:LIN": "\u5929\u795e\u5927\u725f\u7530\u7dda", "KSJ2:STN": "\u897f\u9244\u4e8c\u65e5\u5e02", "name": "\u897f\u9244\u4e8c\u65e5\u5e02", "name:en": "Nishitetsu Futsukaichi", "name:ja": "\u897f\u9244\u4e8c\u65e5\u5e02", "name:ko": "\ub2c8\uc2dc\ud14c\uc4f0\ud6c4\uc4f0\uce74\uc774\uce58", "network": "\u5929\u795e\u5927\u725f\u7530\u7dda", "note": "National-Land Numerical Information (Railway) 2007, MLIT Japan", "note:ja": "\u56fd\u571f\u6570\u5024\u60c5\u5831\uff08\u9244\u9053\u30c7\u30fc\u30bf\uff09\u5e73\u621019\u5e74\u3000\u56fd\u571f\u4ea4\u901a\u7701", "operator": "\u897f\u65e5\u672c\u9244\u9053", "public_transport": "station", "railway": "station", "source": "KSJ2", "source_ref": "http://nlftp.mlit.go.jp/ksj/jpgis/datalist/KsjTmplt-N02-v1_1.html", "wikidata": "Q7040729", "wikipedia": "ja:\u897f\u9244\u4e8c\u65e5\u5e02\u99c5"}}, {"type": "node", "id": 7816830160, "lat": 33.5119218, "lon": 130.5076633, "tags": {"KSJ2:LIN": "\u5929\u795e\u5927\u725f\u7530\u7dda", "KSJ2:STN": "\u90fd\u5e9c\u697c\u524d", "name": "\u90fd\u5e9c\u697c\u524d", "name:en": "Tofuromae", "name:ja": "\u90fd\u5e9c\u697c\u524d", "name:ko": "\ub3c4\ud6c4\ub85c\ub9c8\uc5d0", "network": "\u897f\u65e5\u672c\u9244\u9053\u5929\u795e\u5927\u725f\u7530\u7dda", "note": "National-Land Numerical Information (Railway) 2007, MLIT Japan", "note:ja": "\u56fd\u571f\u6570\u5024\u60c5\u5831\uff08\u9244\u9053\u30c7\u30fc\u30bf\uff09\u5e73\u621019\u5e74\u3000\u56fd\u571f\u4ea4\u901a\u7701", "operator": "\u897f\u65e5\u672c\u9244\u9053", "public_transport": "station", "railway": "station", "source": "KSJ2", "source_ref": "http://nlftp.mlit.go.jp/ksj/jpgis/datalist/KsjTmplt-N02-v1_1.html", "wikidata": "Q7813018", "wikipedia": "ja:\u90fd\u5e9c\u697c\u524d\u99c5"}}, {"type": "node", "id": 7816830162, "lat": 33.5223102, "lon": 130.4893813, "tags": {"KSJ2:LIN": "\u5929\u795e\u5927\u725f\u7530\u7dda", "KSJ2:STN": "\u4e0b\u5927\u5229", "name": "\u4e0b\u5927\u5229", "name:en": "Shimo-\u014cri", "name:ja": "\u4e0b\u5927\u5229", "name:ko": "\uc2dc\ubaa8\uc624\ub9ac", "network": "\u897f\u65e5\u672c\u9244\u9053\u5929\u795e\u5927\u725f\u7530\u7dda", "note": "National-Land Numerical Information (Railway) 2007, MLIT Japan", "note:ja": "\u56fd\u571f\u6570\u5024\u60c5\u5831\uff08\u9244\u9053\u30c7\u30fc\u30bf\uff09\u5e73\u621019\u5e74\u3000\u56fd\u571f\u4ea4\u901a\u7701", "operator": "\u897f\u65e5\u672c\u9244\u9053", "public_transport": "station", "railway": "station", "source": "KSJ2", "source_ref": "http://nlftp.mlit.go.jp/ksj/jpgis/datalist/KsjTmplt-N02-v1_1.html", "wikidata": "Q7497033", "wikipedia": "ja:\u4e0b\u5927\u5229\u99c5"}}, {"type": "node", "id": 7844799666, "lat": 33.4192646, "lon": 130.6532751, "tags": {"KSJ2:LIN": "\u7518\u6728\u7dda", "KSJ2:STN": "\u7518\u6728", "name": "\u7518\u6728", "name:en": "Amagi", "name:ja": "\u7518\u6728", "name:ko": "\uc544\ub9c8\uae30", "note": "National-Land Numerical Information (Railway) 2007, MLIT Japan", "note:ja": "\u56fd\u571f\u6570\u5024\u60c5\u5831\uff08\u9244\u9053\u30c7\u30fc\u30bf\uff09\u5e73\u621019\u5e74\u3000\u56fd\u571f\u4ea4\u901a\u7701", "operator": "\u7518\u6728\u9244\u9053", "public_transport": "station", "railway": "station", "source": "KSJ2", "source_ref": "http://nlftp.mlit.go.jp/ksj/jpgis/datalist/KsjTmplt-N02-v1_1.html", "wikidata": "Q4739135", "wikipedia": "ja:\u7518\u6728\u99c5"}}, {"type": "node", "id": 8077661788, "lat": 33.4183456, "lon": 130.6549086, "tags": {"KSJ2:LIN": "\u7518\u6728\u7dda", "KSJ2:STN": "\u7518\u6728", "name": "\u7518\u6728", "name:en": "Amagi", "name:ja": "\u7518\u6728", "name:ko": "\uc544\ub9c8\uae30", "note": "National-Land Numerical Information (Railway) 2007, MLIT Japan", "note:ja": "\u56fd\u571f\u6570\u5024\u60c5\u5831\uff08\u9244\u9053\u30c7\u30fc\u30bf\uff09\u5e73\u621019\u5e74\u3000\u56fd\u571f\u4ea4\u901a\u7701", "public_transport": "station", "railway": "station", "source": "KSJ2", "source_ref": "http://nlftp.mlit.go.jp/ksj/jpgis/datalist/KsjTmplt-N02-v1_1.html", "wikidata": "Q4739135", "wikipedia": "ja:\u7518\u6728\u99c5"}}, {"type": "node", "id": 8090612830, "lat": 33.5341882, "lon": 130.4586786, "tags": {"amenity": "restaurant", "cuisine": "ramen", "name": "\u535a\u591a\u30e9\u30fc\u30e1\u30f3\u306f\u304b\u305f\u3084 \u6625\u65e5\u5e97"}}, {"type": "node", "id": 8093416118, "lat": 33.1816425, "lon": 131.0356446, "tags": {"name": "\u6756\u7acb\u6e29\u6cc9 \u7c73\u5c4b\u5225\u8358", "phone": "+81 967 48 0507", "tourism": "hotel"}}, {"type": "node", "id": 8267338136, "lat": 33.1791753, "lon": 131.0350866, "tags": {"amenity": "drinking_water"}}, {"type": "node", "id": 8270354682, "lat": 33.1837421, "lon": 131.0338448, "tags": {"amenity": "restaurant", "cuisine": "ramen", "name": "\u4e00\u4e38\u98df\u5802", "name:en": "Ichimaru Shokudo"}}, {"type": "node", "id": 8270354688, "lat": 33.1838221, "lon": 131.0336611, "tags": {"amenity": "cafe", "description": "\u4e0d\u5b9a\u4f11", "layer": "1", "name": "Cafe PLUS", "opening_hours": "Mo-Su 09:30-17:00; Sa 09:30-16:30", "outdoor_seating": "no", "phone": "+81 967 48 0484"}}, {"type": "node", "id": 8270354714, "lat": 33.1825723, "lon": 131.0353109, "tags": {"amenity": "restaurant", "cuisine": "japanese", "delivery": "no", "description": "\u4e0d\u5b9a\u671f\u4f11", "name": "\u98df\u5802\u3053\u307e\u3064", "name:en": "Komatsu", "opening_hours": "Mo-Su 11:00-13:30,18:00-21:30", "phone": "+81 967 48 0508"}}, {"type": "node", "id": 8270409837, "lat": 33.1831946, "lon": 131.0329369, "tags": {"amenity": "cafe", "name": "\u3077\u304f\u3077\u304f", "name:en": "PukuPuku", "phone": "+81 967 48 0388"}}, {"type": "node", "id": 8356058004, "lat": 33.1830326, "lon": 131.0328477, "tags": {"name": "\u3075\u304f\u307f\u5c71\u8358", "name:en": "Fukumi Sanso", "phone": "+81 967 48 0121", "tourism": "hotel"}}, {"type": "node", "id": 8356062004, "lat": 33.1829506, "lon": 131.0335493, "tags": {"name": "\u56db\u5b63\u306e\u5bbf \u308f\u304b\u306e\u3084", "name:en": "Wakanoya", "tourism": "hotel"}}, {"type": "node", "id": 8356257824, "lat": 33.1845163, "lon": 131.0324143, "tags": {"amenity": "drinking_water", "name": "\u85ac\u5e2b\u306e\u6c34", "name:en": "Yakushi no Mizu Water"}}, {"type": "node", "id": 8419599105, "lat": 33.4536429, "lon": 130.6005644, "tags": {"name": "LAWSON", "shop": "convenience"}}, {"type": "node", "id": 8534390017, "lat": 33.5157915, "lon": 130.4711821, "tags": {"name": "\u30b5\u30cb\u30fc\u3000\u6625\u65e5\u5e97", "name:en": "SUNNY KASUGA", "opening_hours": "24/7", "phone": "0925835555", "shop": "supermarket", "website": "https://www.seiyu.co.jp/shop/%E3%82%B5%E3%83%8B%E3%83%BC%E6%98%A5%E6%97%A5%E5%BA%97/"}}, {"type": "node", "id": 8634699133, "lat": 33.359038, "lon": 130.7622377, "tags": {"amenity": "restaurant", "cuisine": "japanese", "name": "\u7b51\u5f8c\u5ddd \u3046\u306a\u304e\u306e\u91cc \u7acb\u82b1\u8358"}}, {"type": "node", "id": 8693042717, "lat": 33.3876546, "lon": 130.721309, "tags": {"brand": "\u30d5\u30a1\u30df\u30ea\u30fc\u30de\u30fc\u30c8", "brand:en": "FamilyMart", "brand:ja": "\u30d5\u30a1\u30df\u30ea\u30fc\u30de\u30fc\u30c8", "brand:wikidata": "Q1191685", "name": "\u30d5\u30a1\u30df\u30ea\u30fc\u30de\u30fc\u30c8", "name:en": "FamilyMart", "name:ja": "\u30d5\u30a1\u30df\u30ea\u30fc\u30de\u30fc\u30c8", "shop": "convenience"}}, {"type": "node", "id": 8724577865, "lat": 33.359565, "lon": 130.8110346, "tags": {"amenity": "restaurant", "cuisine": "japanese", "name": "\u9ce5\u6247"}}, {"type": "node", "id": 8749625468, "lat": 33.3463273, "lon": 130.7687125, "tags": {"amenity": "restaurant", "cuisine": "japanese", "name": "\u3046\u306a\u304e\u306e\u5343\u5e74\u5c4b"}}, {"type": "node", "id": 9102086517, "lat": 33.5538138, "lon": 130.4440121, "tags": {"amenity": "fast_food", "brand": "\u307b\u3063\u3068\u3082\u3063\u3068", "brand:en": "Hotto Motto", "brand:ja": "\u307b\u3063\u3068\u3082\u3063\u3068", "brand:wikidata": "Q10850949", "cuisine": "japanese", "name": "\u307b\u3063\u3068\u3082\u3063\u3068", "name:en": "Hotto Motto", "name:ja": "\u307b\u3063\u3068\u3082\u3063\u3068", "takeaway": "yes"}}, {"type": "node", "id": 9398271674, "lat": 33.5016827, "lon": 130.5175309, "tags": {"amenity": "restaurant", "cuisine": "barbecue", "name": "\u65b0\u9bae\u307b\u308b\u3082\u3093\u5f10\u65e5\u5e02\u4ead"}}, {"type": "node", "id": 9398271675, "lat": 33.5016083, "lon": 130.5174718, "tags": {"amenity": "restaurant", "branch": "\u4e8c\u65e5\u5e02\u5e97", "cuisine": "ramen", "name": "\u3089\u30fc\u3081\u3093\u6797\u5bb6"}}, {"type": "node", "id": 9398271676, "lat": 33.5015486, "lon": 130.5176617, "tags": {"amenity": "restaurant", "cuisine": "japanese", "name": "\u3072\u3055\u3084\u98df\u5802"}}, {"type": "node", "id": 9398271677, "lat": 33.5014578, "lon": 130.517659, "tags": {"amenity": "restaurant", "cuisine": "ramen", "name": "\u30c8\u30de\u30fb\u30c8\u30de\u30fb\u30c8\u30de"}}, {"type": "node", "id": 9398271681, "lat": 33.5024045, "lon": 130.5171089, "tags": {"amenity": "restaurant", "name": "\u713c\u9ce5\u5c45\u9152\u5c4b \u7121\u91cf\u5eb5 \u4e8c\u65e5\u5e02\u5e97"}}, {"type": "node", "id": 9398271682, "lat": 33.5022655, "lon": 130.5171414, "tags": {"amenity": "restaurant", "cuisine": "korean", "name": "\u97d3\u56fd\u5c45\u9152\u5c4b \u30a4\u30cb\u30e7\u30f3"}}, {"type": "node", "id": 9398271686, "lat": 33.5027917, "lon": 130.5182519, "tags": {"amenity": "cafe", "cuisine": "bubble_tea", "name": "FOOD BOAT cafe"}}, {"type": "node", "id": 9398271695, "lat": 33.501277, "lon": 130.5177149, "tags": {"amenity": "cafe", "name": "Amoha cafe"}}, {"type": "node", "id": 9398271697, "lat": 33.5014425, "lon": 130.5174018, "tags": {"amenity": "restaurant", "cuisine": "barbecue", "name": "\u70ad\u713c\u5e83\u5834 HIGEJIISAN"}}, {"type": "node", "id": 9398271701, "lat": 33.5011361, "lon": 130.5174317, "tags": {"amenity": "restaurant", "name": "\u3068\u3082\u3059\u3051 \u4e8c\u65e5\u5e02\u5e97"}}, {"type": "node", "id": 9398271702, "lat": 33.5010788, "lon": 130.5173558, "tags": {"amenity": "restaurant", "name": "\u4e0b\u753a\u30d3\u30b9\u30c8\u30ed \u30ed\u30c2\u30a6\u30e9"}}, {"type": "node", "id": 9586895217, "lat": 33.4867955, "lon": 130.5150262, "tags": {"addr:housenumber": "\uff12\u2212\uff11", "addr:postcode": "8180052", "addr:street": "\u6b66\u8535\u4e09\u4e01\u76ee", "amenity": "restaurant", "name": "\u30ea\u30f3\u30ab", "name:en": "RingerHut", "name:ja": "\u30ea\u30f3\u30ac\u30fc\u30cf\u30c3\u30c8", "opening_hours": "Mo-Su 11:00-23:00", "website": "https://shop.ringerhut.jp/shop/r0012"}}, {"type": "node", "id": 9630555115, "lat": 33.5413542, "lon": 130.4320037, "tags": {"brand": "\u30bb\u30d6\u30f3-\u30a4\u30ec\u30d6\u30f3", "brand:en": "7-Eleven", "brand:ja": "\u30bb\u30d6\u30f3-\u30a4\u30ec\u30d6\u30f3", "brand:wikidata": "Q259340", "brand:wikipedia": "en:7-Eleven", "name": "\u30bb\u30d6\u30f3-\u30a4\u30ec\u30d6\u30f3", "name:en": "7-Eleven", "name:ja": "\u30bb\u30d6\u30f3-\u30a4\u30ec\u30d6\u30f3", "official_name:en": "Seven-Eleven", "shop": "convenience"}}, {"type": "node", "id": 9740490024, "lat": 33.5523109, "lon": 130.4282598, "tags": {"amenity": "cafe", "name": "\u4ea4\u5dee\u70b9"}}, {"type": "node", "id": 9880094098, "lat": 33.3084237, "lon": 130.939019, "tags": {"amenity": "drinking_water"}}, {"type": "node", "id": 9880094099, "lat": 33.3086281, "lon": 130.9385465, "tags": {"amenity": "drinking_water"}}, {"type": "node", "id": 9883308907, "lat": 33.3087998, "lon": 130.9298813, "tags": {"amenity": "drinking_water"}}, {"type": "node", "id": 9883339029, "lat": 33.310928, "lon": 130.9294912, "tags": {"amenity": "drinking_water"}}, {"type": "node", "id": 10130938139, "lat": 33.5471584, "lon": 130.4435511, "tags": {"amenity": "restaurant", "cuisine": "cantonese;chinese", "name": "\u65b0\u8a18\u51b0\u5ba4", "name:en": "Sun Kee Cafe", "name:zh": "\u65b0\u8a18\u51b0\u5ba4", "phone": "+81 92 707 9168", "website": "https://www.sunkeecafejp.com/"}}, {"type": "node", "id": 10712903949, "lat": 33.4898713, "lon": 130.5135101, "tags": {"name": "\u5927\u4e38\u5225\u8358", "tourism": "hotel"}}, {"type": "node", "id": 10716766627, "lat": 33.5008343, "lon": 130.5171465, "tags": {"amenity": "fast_food", "cuisine": "ramen", "name": "\u7d14\u8c5a\u9aa8\u3089\u30fc\u3081\u3093 \u307f\u3063\u3061\u3083\u3093"}}, {"type": "node", "id": 10718586126, "lat": 33.5015477, "lon": 130.5175835, "tags": {"amenity": "restaurant", "cuisine": "barbecue", "name": "\u751f\u30bf\u30f3\u5869 \u8089\u6210"}}, {"type": "node", "id": 10718709671, "lat": 33.5008949, "lon": 130.5172752, "tags": {"amenity": "fast_food", "cuisine": "burger", "name": "Son House"}}, {"type": "node", "id": 10718709673, "lat": 33.5008605, "lon": 130.5172041, "tags": {"amenity": "restaurant", "cuisine": "steak_house", "name": "\u8c5a\u5bb6"}}, {"type": "node", "id": 10720492738, "lat": 33.5138196, "lon": 130.5056138, "tags": {"amenity": "fast_food", "cuisine": "pizza", "name": "PIZZS-LA \u592a\u5bb0\u5e9c\u5e97"}}, {"type": "node", "id": 10720496648, "lat": 33.498373, "lon": 130.5201041, "tags": {"amenity": "fast_food", "branch": "\u7b51\u7d2b\u91ce\u5e97", "cuisine": "pizza", "name": "\u30d4\u30b6\u30dd\u30b1\u30c3\u30c8 \u7b51\u7d2b\u91ce\u5e97"}}, {"type": "node", "id": 10720504880, "lat": 33.5066764, "lon": 130.5151252, "tags": {"amenity": "fast_food", "cuisine": "pizza", "name": "PIZZA Cooc \u4e8c\u65e5\u5e02\u5e97"}}, {"type": "node", "id": 10727042821, "lat": 33.5100345, "lon": 130.4946558, "tags": {"amenity": "cafe", "name": "\u732b\u30ab\u30d5\u30a7NYAON"}}, {"type": "node", "id": 10728752881, "lat": 33.4956713, "lon": 130.5183527, "tags": {"amenity": "restaurant", "cuisine": "indian", "name": "\u5c0f\u6797\u30ab\u30ec\u30fc"}}, {"type": "node", "id": 10737200215, "lat": 33.4951804, "lon": 130.5185614, "tags": {"amenity": "fast_food", "cuisine": "chicken", "name": "\u535a\u591a\u5730\u3069\u308a"}}, {"type": "node", "id": 10749576100, "lat": 33.5020027, "lon": 130.519047, "tags": {"amenity": "cafe", "cuisine": "pizza;pasta;dessert", "name": "\u30bb\u30a4\u30f3\u30c8"}}, {"type": "node", "id": 10749576101, "lat": 33.501965, "lon": 130.5189757, "tags": {"amenity": "restaurant", "cuisine": "sushi", "name": "\u798f\u305a\u3057"}}, {"type": "node", "id": 10757821415, "lat": 33.4965382, "lon": 130.5178954, "tags": {"amenity": "cafe", "name": "\u304a\u98df\u4e8b\u55ab\u8336 \u5b63\u7bc0"}}, {"type": "node", "id": 10759463983, "lat": 33.5016265, "lon": 130.5187342, "tags": {"amenity": "restaurant", "cuisine": "barbecue", "name": "\u713c\u8089 \u9f8d\u738b\u9928"}}, {"type": "node", "id": 10761975350, "lat": 33.5222318, "lon": 130.4891615, "tags": {"amenity": "fast_food", "name": "\u3080\u3063\u3061\u3083\u3093\u4e07\u5341 \u672c\u5e97"}}, {"type": "node", "id": 10763043444, "lat": 33.5129798, "lon": 130.4870649, "tags": {"amenity": "restaurant", "name": "\u3073\u3063\u304f\u308a\u4ead \u592a\u5bb0\u5e9c\u5e97"}}, {"type": "node", "id": 10763043445, "lat": 33.5129887, "lon": 130.4871333, "tags": {"amenity": "restaurant", "cuisine": "ramen", "name": "\u4e94\u53f7\u7dda\u6cbf\u3044\u306e\u5143\u7956\u9577\u6d5c\u30e9\u30fc\u30e1\u30f3"}}, {"type": "node", "id": 10763607686, "lat": 33.507196, "lon": 130.4964922, "tags": {"amenity": "fast_food", "name": "\u30b4\u30fc\u30b4\u30fc\u30ab\u30ec\u30fc \u592a\u5bb0\u5e9c\u5411\u4f50\u91ce\u30b9\u30bf\u30b8\u30a2\u30e0"}}, {"type": "node", "id": 10763607688, "lat": 33.506496, "lon": 130.4963634, "tags": {"name": "\u696d\u52d9\u30b9\u30fc\u30d1\u30fc \u5411\u4f50\u91ce\u5e97", "shop": "supermarket"}}, {"type": "node", "id": 10764480680, "lat": 33.5051441, "lon": 130.4971998, "tags": {"amenity": "cafe", "name": "\u81ea\u5bb6\u7119\u714e \u5922\u73c8\u7432"}}, {"type": "node", "id": 10766910369, "lat": 33.5005145, "lon": 130.5183225, "tags": {"amenity": "restaurant", "cuisine": "indian", "name": "\u3053\u308d\u3057\u306e\u30ab\u30ec\u30fc"}}, {"type": "node", "id": 10771051567, "lat": 33.5032031, "lon": 130.5209787, "tags": {"amenity": "cafe", "cuisine": "coffee_shop", "name": "cafe \u6f66 -\u306b\u308f\u305f\u305a\u307f-"}}, {"type": "node", "id": 10771051569, "lat": 33.5027801, "lon": 130.5204366, "tags": {"amenity": "fast_food", "cuisine": "bento", "cuisine:ja": "\u5f01\u5f53", "name": "\u307b\u3063\u3068\u3082\u3063\u3068 \u897f\u9244\u4e8c\u65e5\u5e02\u99c5\u524d\u5e97"}}, {"type": "node", "id": 10773850330, "lat": 33.5006729, "lon": 130.5181784, "tags": {"amenity": "restaurant", "cuisine": "noodle", "name": "\u3048\u3044\u3053\u3046"}}, {"type": "node", "id": 10773850331, "lat": 33.5006033, "lon": 130.5181794, "tags": {"amenity": "fast_food", "name": "\u304a\u3080\u3059\u3073\u30fb\u304e\u3085\u3063\u304e\u3085"}}, {"type": "node", "id": 10774418263, "lat": 33.5018386, "lon": 130.5171498, "tags": {"amenity": "fast_food", "cuisine:ja": "\u304a\u597d\u307f\u713c", "name": "\u535a\u591a\u9244\u677f\u713c\u304d\u5e83\u5cf6\u304a\u597d\u307f\u713c\u304d \u3082\u3093\u3061\u3083\u3093"}}, {"type": "node", "id": 10774418264, "lat": 33.50189, "lon": 130.5170712, "tags": {"amenity": "restaurant", "cuisine": "indian", "name": "\u30b5\u30e0\u30ab\u30ea\u30fc"}}, {"type": "node", "id": 10774444030, "lat": 33.5000024, "lon": 130.5183602, "tags": {"amenity": "restaurant", "cuisine": "ramen", "name": "\u9eba\u3084\u5341\u58f1"}}, {"type": "node", "id": 10774444034, "lat": 33.4996325, "lon": 130.5184839, "tags": {"amenity": "fast_food", "name": "\u798f\u8033\u9903\u5b50 \u4e8c\u65e5\u5e02\u5e97"}}, {"type": "node", "id": 10787723900, "lat": 33.4989996, "lon": 130.5182781, "tags": {"amenity": "cafe", "name": "cafe \u30eb\u30fb\u30f4\u30a9\u30ef\u30fc\u30eb"}}, {"type": "node", "id": 10788194840, "lat": 33.5036748, "lon": 130.5166201, "tags": {"amenity": "cafe", "name": "cafe sacco"}}, {"type": "node", "id": 10814306861, "lat": 33.5500147, "lon": 130.4431126, "tags": {"amenity": "restaurant", "cuisine": "indian"}}, {"type": "node", "id": 10899439344, "lat": 33.5361413, "lon": 130.4566848, "tags": {"amenity": "restaurant", "cuisine": "ramen", "name": "\u30e9\u30fc\u30e1\u30f3 \u666e\u901a"}}, {"type": "node", "id": 10899439345, "lat": 33.5361139, "lon": 130.4566446, "tags": {"amenity": "restaurant", "name": "\u30dc\u30ea\u30e5\u30fc\u30e0\u3068\u7f8e\u5473 \u306e\u3093\u304d\u3084"}}, {"type": "node", "id": 10899439346, "lat": 33.5361664, "lon": 130.4567257, "tags": {"amenity": "restaurant", "cuisine": "sushi", "name": "\u3059\u3057\u306e\u751a\u516d"}}, {"type": "node", "id": 10910172421, "lat": 33.5445182, "lon": 130.4832222, "tags": {"amenity": "cafe", "name": "Kettle cafe"}}, {"type": "node", "id": 10914233553, "lat": 33.5279956, "lon": 130.4798589, "tags": {"amenity": "fast_food", "name": "\u5929\u6d25\u5305\u5b50 \u592a\u5e73\u95a3"}}, {"type": "node", "id": 10914399379, "lat": 33.518614, "lon": 130.5010454, "tags": {"amenity": "fast_food", "name": "\u611f\u8b1d\u5802 \u80e1\u9ebb\u7530\u306e\u304a\u306f\u304e\uff65\u3054\u307e\u305a\u3057"}}, {"type": "node", "id": 10915239854, "lat": 33.5141084, "lon": 130.5072005, "tags": {"amenity": "restaurant", "cuisine": "japanese", "name": "\u63da\u3052\u305f\u3066\u5929\u3077\u3089 \u306f\u307e\u3060"}}, {"type": "node", "id": 10915239859, "lat": 33.5142173, "lon": 130.5070513, "tags": {"amenity": "fast_food", "cuisine": "bento", "cuisine:ja": "\u5f01\u5f53", "name": "Hotto Motto \u95a2\u5c4b\u5e97"}}, {"type": "node", "id": 10927955629, "lat": 33.5200655, "lon": 130.4689237, "tags": {"amenity": "restaurant", "cuisine": "vietnamese", "name": "\u30d9\u30c8\u30ca\u30e0\u9eba\u3068\u96d1\u8ca8\u306e\u5e97 pho Bac"}}, {"type": "node", "id": 11347394237, "lat": 33.5442189, "lon": 130.4708344, "tags": {"brand": "7-ELEVEN", "brand:en": "7-ELEVEN", "brand:ja": "\u30bb\u30d6\u30f3-\u30a4\u30ec\u30d6\u30f3", "brand:wikidata": "Q259340", "name": "\u30bb\u30d6\u30f3-\u30a4\u30ec\u30d6\u30f3", "name:en": "7-Eleven", "name:ja": "\u30bb\u30d6\u30f3-\u30a4\u30ec\u30d6\u30f3", "official_name:en": "Seven-Eleven", "shop": "convenience"}}, {"type": "node", "id": 11347409462, "lat": 33.4925218, "lon": 130.522351, "tags": {"brand": "7-ELEVEN", "brand:en": "7-ELEVEN", "brand:ja": "\u30bb\u30d6\u30f3-\u30a4\u30ec\u30d6\u30f3", "brand:wikidata": "Q259340", "name": "\u30bb\u30d6\u30f3-\u30a4\u30ec\u30d6\u30f3", "name:en": "7-Eleven", "name:ja": "\u30bb\u30d6\u30f3-\u30a4\u30ec\u30d6\u30f3", "official_name:en": "Seven-Eleven", "shop": "convenience"}}, {"type": "node", "id": 11347451967, "lat": 33.5072851, "lon": 130.5099767, "tags": {"brand": "7-ELEVEN", "brand:en": "7-ELEVEN", "brand:ja": "\u30bb\u30d6\u30f3-\u30a4\u30ec\u30d6\u30f3", "brand:wikidata": "Q259340", "name": "\u30bb\u30d6\u30f3-\u30a4\u30ec\u30d6\u30f3", "name:en": "7-Eleven", "name:ja": "\u30bb\u30d6\u30f3-\u30a4\u30ec\u30d6\u30f3", "official_name:en": "Seven-Eleven", "shop": "convenience"}}, {"type": "node", "id": 11347722395, "lat": 33.4154922, "lon": 130.668272, "tags": {"brand": "7-ELEVEN", "brand:en": "7-ELEVEN", "brand:ja": "\u30bb\u30d6\u30f3-\u30a4\u30ec\u30d6\u30f3", "brand:wikidata": "Q259340", "name": "\u30bb\u30d6\u30f3-\u30a4\u30ec\u30d6\u30f3", "name:en": "7-Eleven", "name:ja": "\u30bb\u30d6\u30f3-\u30a4\u30ec\u30d6\u30f3", "official_name:en": "Seven-Eleven", "shop": "convenience"}}, {"type": "node", "id": 11445464346, "lat": 33.5302878, "lon": 130.4527225, "tags": {"brand": "FamilyMart", "brand:en": "FamilyMart", "brand:ja": "\u30d5\u30a1\u30df\u30ea\u30fc\u30de\u30fc\u30c8", "brand:wikidata": "Q1191685", "name": "\u30d5\u30a1\u30df\u30ea\u30fc\u30de\u30fc\u30c8", "name:en": "FamilyMart", "name:ja": "\u30d5\u30a1\u30df\u30ea\u30fc\u30de\u30fc\u30c8", "shop": "convenience"}}, {"type": "node", "id": 12364892367, "lat": 33.5312108, "lon": 130.4858062, "tags": {"amenity": "restaurant", "branch": "\u5927\u91ce\u57ce\u5e97", "brewery": "Asahi;Kirin", "check_date": "2024-11-22", "cuisine": "japanese", "name": "\u3069\u3093\u3069\u3093\u4ead"}}, {"type": "node", "id": 12383568705, "lat": 33.5531169, "lon": 130.4282183, "tags": {"addr:block_number": "5\u756a", "addr:city": "\u798f\u5ca1\u5e02\u5357\u533a", "addr:housenumber": "6\u53f7", "addr:neighbourhood": "\u5927\u69604\u4e01\u76ee", "addr:postcode": "815-0033", "addr:province": "\u798f\u5ca1\u770c", "amenity": "restaurant", "contact:facebook": "facebook.com/yakichi0891", "cuisine": "sandwich", "name": "yakichi", "phone": "+81 92 553 2600"}}, {"type": "node", "id": 12383742106, "lat": 33.550924, "lon": 130.4446394, "tags": {"addr:block_number": "20", "addr:city": "\u798f\u5ca1\u5e02\u5357\u533a", "addr:housename": "1\u53f7 Y\uff4d\u30b3\u30fc\u30dd", "addr:neighbourhood": "4\u4e01\u76ee", "addr:postcode": "811-1302", "addr:province": "\u798f\u5ca1\u770c", "addr:quarter": "\u4e95\u5c3b", "amenity": "restaurant", "cuisine": "udon", "name": "\u3053\u307e\u3069\u308a\u3046\u3069\u3093 \u4e95\u5c3b\u5e97"}}, {"type": "node", "id": 12495535662, "lat": 33.5014124, "lon": 130.5173989, "tags": {"amenity": "restaurant", "check_date": "2025-01-12", "cuisine": "italian", "name": "Pino", "name:ja": "\u30d4\u30ce", "opening_hours": "17:30-24:00", "phone": "+81 92-9218-822"}}, {"type": "node", "id": 12530876628, "lat": 33.3251711, "lon": 130.8581772, "tags": {"brand": "\u30e4\u30de\u30b6\u30ad\u30b7\u30e7\u30c3\u30d7", "brand:ja": "\u30e4\u30de\u30b6\u30ad\u30b7\u30e7\u30c3\u30d7", "brand:wikidata": "Q11345131", "name": "\u30e4\u30de\u30b6\u30ad\u30b7\u30e7\u30c3\u30d7", "name:en": "Yamazaki Shop", "name:ja": "\u30e4\u30de\u30b6\u30ad\u30b7\u30e7\u30c3\u30d7", "shop": "convenience"}}, {"type": "node", "id": 12564832276, "lat": 33.4843591, "lon": 130.5334432, "tags": {"amenity": "fast_food", "branch": "\u671d\u5009\u8857\u9053\u5e97", "brand": "\u30e9\u30fc\u30e1\u30f3\u4e8c\u90ce", "brand:en": "Ramen Jiro", "brand:ja": "\u30e9\u30fc\u30e1\u30f3\u4e8c\u90ce", "brand:wikidata": "Q11347765", "check_date": "2025-02-07", "cuisine": "ramen", "level": "0", "name": "\u30e9\u30fc\u30e1\u30f3\u4e8c\u90ce", "name:en": "Ramen Jiro", "name:ja": "\u30e9\u30fc\u30e1\u30f3\u4e8c\u90ce", "opening_hours": "Mo-Fr 11:30-14:30,16:00-17:30; Sa 12:00-15:00; Su off", "takeaway": "yes"}}, {"type": "node", "id": 12862232510, "lat": 33.4161883, "lon": 130.6676878, "tags": {"branch": "\u6765\u6625\u5e97", "name": "\u30de\u30eb\u30b7\u30e7\u30af", "opening_hours": "Mo-Su 09:00-22:00", "shop": "supermarket", "website": "https://www.sunlive.co.jp/shop/%e3%83%9e%e3%83%ab%e3%82%b7%e3%83%a7%e3%82%af%e6%9d%a5%e6%98%a5%e5%ba%97/"}}, {"type": "node", "id": 12862232550, "lat": 33.4170212, "lon": 130.6667729, "tags": {"amenity": "restaurant", "branch": "\u7518\u6728\u5e97", "cuisine": "japanese;\u713c\u304d\u305d\u3070", "name": "\u713c\u304d\u305d\u3070\u306e\u60f3\u592b\u604b", "opening_hours": "11:00-15:00,17:00-21:00; Th off", "phone": "+81-946-23-0607", "website": "https://sofuren.com/fukuoka/"}}, {"type": "node", "id": 12862232672, "lat": 33.4142898, "lon": 130.6745026, "tags": {"addr:block_number": "52\u756a\u5730", "addr:city": "\u671d\u5009\u5e02", "addr:housenumber": "1", "addr:neighbourhood": "\u9813\u7530", "addr:province": "\u798f\u5ca1\u770c", "amenity": "restaurant", "branch": "\u7518\u6728\u5e97", "brand": "\u30b8\u30e7\u30a4\u30d5\u30eb", "brand:en": "Joyfull", "brand:ja": "\u30b8\u30e7\u30a4\u30d5\u30eb", "brand:wikidata": "Q11310517", "cuisine": "western", "name": "\u30b8\u30e7\u30a4\u30d5\u30eb", "name:en": "Joyfull", "name:ja": "\u30b8\u30e7\u30a4\u30d5\u30eb", "opening_hours": "Mo-Su 00:00-01:00,08:00-00:00", "phone": "+81-946-24-6333", "website": "https://www.joyfull.co.jp/shop/archives/464"}}, {"type": "node", "id": 12864094901, "lat": 33.549423, "lon": 130.4422728, "tags": {"addr:housenumber": "4 Chome-5-1", "addr:postcode": "811-1302", "addr:street": "Ijiri, Minami Ward, Fukuoka", "amenity": "restaurant", "name": "\u304a\u98df\u4e8b\u51e6 \u751f\u3046\u3069\u3093\u751f\u305d\u3070 \u98a8\u6d41\u7530\u820e\u5c4b"}}, {"type": "node", "id": 12989253773, "lat": 33.5563975, "lon": 130.4289211, "tags": {"addr:block_number": "\uff12\u4e01\u76ee\uff11\uff13\uff0d\uff19", "addr:city": "\u798f\u5ca1\u5e02", "addr:neighbourhood": "\u5927\u6a4b", "addr:postcode": "8150033", "addr:province": "\u798f\u5ca1\u770c", "addr:suburb": "\u5357\u533a", "amenity": "restaurant", "name": "\u548c\u98df\u305f\u304b\u3082\u3068"}}, {"type": "node", "id": 12989253780, "lat": 33.5558991, "lon": 130.4288285, "tags": {"addr:block_number": "14-8", "addr:city": "\u798f\u5ca1\u5e02", "addr:neighbourhood": "2", "addr:postcode": "8150033", "addr:province": "\u798f\u5ca1\u770c", "addr:quarter": "\u5927\u6a4b", "addr:suburb": "\u5357\u533a", "amenity": "restaurant", "cuisine": "pizza;italian", "name": "\u30e9\u30fb\u30e2\u30cd\u30bf"}}, {"type": "node", "id": 13061131594, "lat": 33.544512, "lon": 130.4666816, "tags": {"brand": "LAWSON", "brand:en": "LAWSON", "brand:ja": "\u30ed\u30fc\u30bd\u30f3", "brand:wikidata": "Q1557223", "check_date": "2025-08-10", "name": "\u30ed\u30fc\u30bd\u30f3", "name:en": "Lawson", "name:ja": "\u30ed\u30fc\u30bd\u30f3", "opening_hours": "24/7", "shop": "convenience"}}, {"type": "node", "id": 13157100988, "lat": 33.3113839, "lon": 130.9087161, "tags": {"opening_hours": "Mo-Su 09:00-18:30", "shop": "convenience"}}, {"type": "node", "id": 13242147587, "lat": 33.2547051, "lon": 131.0219361, "tags": {"air_conditioning": "yes", "amenity": "restaurant", "capacity": "8", "name": "\u685c\u6eddKITCHEN", "toilets": "no"}}, {"type": "node", "id": 13343652441, "lat": 33.5446837, "lon": 130.4664742, "tags": {"name": "\u685c\u4e26\u6728", "name:en": "Sakuranamiki", "name:ja": "\u685c\u4e26\u6728", "name:ko": "\uc0ac\ucfe0\ub77c\ub098\ubbf8\ud0a4", "name:zh-Hant": "\u6afb\u4e26\u6728", "network": "\u5929\u795e\u5927\u725f\u7530\u7dda", "operator": "\u897f\u65e5\u672c\u9244\u9053", "public_transport": "station", "railway": "station", "start_date": "2024-03-16", "train": "yes", "wikidata": "Q113301382", "wikipedia": "ja:\u685c\u4e26\u6728\u99c5"}}, {"type": "node", "id": 13458666405, "lat": 33.3200514, "lon": 130.8658898, "tags": {"KSJ2:STN": "\u591c\u660e", "name": "\u591c\u660e", "name:en": "Yoake", "name:ja": "\u591c\u660e", "name:ko": "\uc694\uc544\ucf00", "operator": "\u4e5d\u5dde\u65c5\u5ba2\u9244\u9053", "operator:en": "Kyushu Railway Company", "public_transport": "station", "railway": "station", "train": "yes", "wikidata": "Q4898235", "wikipedia": "ja:\u591c\u660e\u99c5"}}, {"type": "node", "id": 13458741969, "lat": 33.2549006, "lon": 131.0240201, "tags": {"KSJ2:LIN": "\u4e45\u5927\u7dda", "KSJ2:STN": "\u5929\u30f6\u702c", "name": "\u5929\u30f6\u702c", "name:en": "Amagase", "name:ja": "\u5929\u30f6\u702c", "name:ko": "\uc544\ub9c8\uac00\uc138", "network": "JR\u4e45\u5927\u7dda", "note": "National-Land Numerical Information (Railway) 2007, MLIT Japan", "note:ja": "\u56fd\u571f\u6570\u5024\u60c5\u5831\uff08\u9244\u9053\u30c7\u30fc\u30bf\uff09\u5e73\u621019\u5e74 \u56fd\u571f\u4ea4\u901a\u7701", "operator": "\u4e5d\u5dde\u65c5\u5ba2\u9244\u9053", "public_transport": "station", "railway": "station", "source": "KSJ2", "source_ref": "http://nlftp.mlit.go.jp/ksj/jpgis/datalist/KsjTmplt-N02-v1_1.html", "wikidata": "Q4739122", "wikipedia": "ja:\u5929\u30b1\u702c\u99c5"}}, {"type": "node", "id": 13458741970, "lat": 33.2847254, "lon": 131.0057408, "tags": {"KSJ2:LIN": "\u4e45\u5927\u7dda", "KSJ2:STN": "\u8c4a\u5f8c\u4e2d\u5ddd", "name": "\u8c4a\u5f8c\u4e2d\u5ddd", "name:en": "Bungo-Nakagawa", "name:ja": "\u8c4a\u5f8c\u4e2d\u5ddd", "name:ko": "\ubd84\uace0\ub098\uce74\uac00\uc640", "network": "JR\u4e45\u5927\u7dda", "note": "National-Land Numerical Information (Railway) 2007, MLIT Japan", "note:ja": "\u56fd\u571f\u6570\u5024\u60c5\u5831\uff08\u9244\u9053\u30c7\u30fc\u30bf\uff09\u5e73\u621019\u5e74 \u56fd\u571f\u4ea4\u901a\u7701", "operator": "\u4e5d\u5dde\u65c5\u5ba2\u9244\u9053", "railway": "station", "source": "KSJ2", "source_ref": "http://nlftp.mlit.go.jp/ksj/jpgis/datalist/KsjTmplt-N02-v1_1.html", "wikidata": "Q4997667", "wikipedia": "ja:\u8c4a\u5f8c\u4e2d\u5ddd\u99c5"}}, {"type": "node", "id": 13458741975, "lat": 33.3056846, "lon": 130.9516641, "tags": {"KSJ2:LIN": "\u4e45\u5927\u7dda", "KSJ2:STN": "\u8c4a\u5f8c\u4e09\u82b3", "name": "\u8c4a\u5f8c\u4e09\u82b3", "name:en": "Bungo-Miyoshi", "name:ja": "\u8c4a\u5f8c\u4e09\u82b3", "name:ko": "\ubd84\uace0\ubbf8\uc694\uc2dc", "network": "JR\u4e45\u5927\u7dda", "note": "National-Land Numerical Information (Railway) 2007, MLIT Japan", "note:ja": "\u56fd\u571f\u6570\u5024\u60c5\u5831\uff08\u9244\u9053\u30c7\u30fc\u30bf\uff09\u5e73\u621019\u5e74 \u56fd\u571f\u4ea4\u901a\u7701", "operator": "\u4e5d\u5dde\u65c5\u5ba2\u9244\u9053", "railway": "station", "source": "KSJ2", "source_ref": "http://nlftp.mlit.go.jp/ksj/jpgis/datalist/KsjTmplt-N02-v1_1.html", "wikidata": "Q4997665", "wikipedia": "ja:\u8c4a\u5f8c\u4e09\u82b3\u99c5"}}, {"type": "node", "id": 13546346201, "lat": 33.5535415, "lon": 130.4422487, "tags": {"air_conditioning": "yes", "internet_access": "wired", "internet_access:fee": "customers", "name": "Sharely Style Hakata", "tourism": "guest_house"}}, {"type": "node", "id": 13679482918, "lat": 33.3468391, "lon": 130.7685202, "tags": {"amenity": "fast_food", "brand": "\u30de\u30af\u30c9\u30ca\u30eb\u30c9", "brand:en": "McDonald's", "brand:ja": "\u30de\u30af\u30c9\u30ca\u30eb\u30c9", "brand:wikidata": "Q38076", "cuisine": "burger", "name": "\u30de\u30af\u30c9\u30ca\u30eb\u30c9", "name:en": "McDonald's", "name:ja": "\u30de\u30af\u30c9\u30ca\u30eb\u30c9", "takeaway": "yes"}}, {"type": "node", "id": 13685086811, "lat": 33.5517704, "lon": 130.4434278, "tags": {"brand": "7-ELEVEN", "brand:en": "7-ELEVEN", "brand:ja": "\u30bb\u30d6\u30f3-\u30a4\u30ec\u30d6\u30f3", "brand:wikidata": "Q259340", "name": "\u30bb\u30d6\u30f3-\u30a4\u30ec\u30d6\u30f3", "name:en": "7-Eleven", "name:ja": "\u30bb\u30d6\u30f3-\u30a4\u30ec\u30d6\u30f3", "official_name:en": "Seven-Eleven", "shop": "convenience"}}, {"type": "node", "id": 13686354806, "lat": 33.5282249, "lon": 130.4830187, "tags": {"addr:block_number": "6", "addr:city": "\u5927\u91ce\u57ce\u5e02", "addr:housenumber": "6", "addr:neighbourhood": "1", "addr:province": "\u798f\u5ca1\u770c", "addr:quarter": "\u767d\u6728\u539f", "branch": "\u897f\u9244\u767d\u6728\u539f\u99c5\u5e97", "brand": "LAWSON", "brand:en": "LAWSON", "brand:ja": "\u30ed\u30fc\u30bd\u30f3", "brand:wikidata": "Q1557223", "name": "\u30ed\u30fc\u30bd\u30f3", "name:en": "Lawson", "name:ja": "\u30ed\u30fc\u30bd\u30f3", "ref": "381574", "shop": "convenience"}}, {"type": "node", "id": 13898628913, "lat": 33.4062551, "lon": 130.670572, "tags": {"addr:block_number": "4272", "addr:city": "\u671d\u5009\u5e02", "addr:housenumber": "1", "addr:neighbourhood": "\u897f\u539f", "addr:postcode": "838-0031", "addr:province": "\u798f\u5ca1\u770c", "addr:quarter": "\u5c4b\u6c38", "branch": "\u7518\u6728\u5e97", "brand": "\u30c8\u30e9\u30a4\u30a2\u30eb", "brand:en": "Trial", "brand:ja": "\u30c8\u30e9\u30a4\u30a2\u30eb", "brand:wikidata": "Q11321723", "name": "\u30c8\u30e9\u30a4\u30a2\u30eb", "name:en": "Trial", "name:ja": "\u30c8\u30e9\u30a4\u30a2\u30eb", "opening_hours": "24/7", "shop": "supermarket", "website": "https://www.trial-net.co.jp/shops/100"}}]