{
  "label": "OSRM real-distance route",
  "shape": "open path (fixed endpoints)",
  "distance_source": "osrm_foot",
  "start": "長崎鼻 (Cape Nagasakibana)",
  "end": "#41 浜脇温泉：茶房たかさきの湯",
  "n_stops": 108,
  "total_km_osrm": 1490.4,
  "prefecture_coverage": {
    "鹿児島": 22,
    "熊本": 23,
    "宮崎": 9,
    "福岡": 14,
    "佐賀": 6,
    "長崎": 6,
    "大分": 28
  },
  "all7_covered": true,
  "excluded_ids": [
    90,
    95,
    96,
    100,
    116,
    140,
    189,
    205,
    217,
    224,
    231,
    246
  ],
  "stops": [
    {
      "order": 1,
      "id": 250,
      "area": "指宿温泉",
      "name": "山川砂むし温泉「砂湯里」",
      "prefecture": "鹿児島県",
      "pref_short": "鹿児島",
      "lat": 31.1860379,
      "lon": 130.5994825,
      "leg_km_gc": 4.12,
      "cum_km_gc": 4.1,
      "open_min": 510,
      "last_min": 990,
      "closed_weekdays": [
        2
      ],
      "never_closes": false,
      "irregular": false
    },
    {
      "order": 2,
      "id": 236,
      "area": "指宿温泉",
      "name": "砂むし会館「砂楽」",
      "prefecture": "鹿児島県",
      "pref_short": "鹿児島",
      "lat": 31.229221,
      "lon": 130.651583,
      "leg_km_gc": 14.26,
      "cum_km_gc": 18.4,
      "open_min": 510,
      "last_min": 1200,
      "closed_weekdays": [],
      "never_closes": true,
      "irregular": false
    },
    {
      "order": 3,
      "id": 119,
      "area": "弥次ヶ湯温泉",
      "name": "湯治宿休憩所",
      "prefecture": "鹿児島県",
      "pref_short": "鹿児島",
      "lat": 31.248629,
      "lon": 130.6374644,
      "leg_km_gc": 2.83,
      "cum_km_gc": 21.2,
      "open_min": 480,
      "last_min": 1260,
      "closed_weekdays": [
        3
      ],
      "never_closes": false,
      "irregular": false
    },
    {
      "order": 4,
      "id": 115,
      "area": "鹿児島温泉",
      "name": "城山長寿泉",
      "prefecture": "鹿児島県",
      "pref_short": "鹿児島",
      "lat": 31.5994558,
      "lon": 130.5505633,
      "leg_km_gc": 52.73,
      "cum_km_gc": 73.9,
      "open_min": 570,
      "last_min": 1290,
      "closed_weekdays": [],
      "never_closes": false,
      "irregular": false
    },
    {
      "order": 5,
      "id": 117,
      "area": "大黒温泉",
      "name": "大黒温泉",
      "prefecture": "鹿児島県",
      "pref_short": "鹿児島",
      "lat": 31.6364246,
      "lon": 130.518817,
      "leg_km_gc": 6.29,
      "cum_km_gc": 80.2,
      "open_min": 360,
      "last_min": 1320,
      "closed_weekdays": [],
      "never_closes": true,
      "irregular": false
    },
    {
      "order": 6,
      "id": 128,
      "area": "船津温泉",
      "name": "船津温泉",
      "prefecture": "鹿児島県",
      "pref_short": "鹿児島",
      "lat": 31.750709,
      "lon": 130.601242,
      "leg_km_gc": 20.12,
      "cum_km_gc": 100.3,
      "open_min": 570,
      "last_min": 1320,
      "closed_weekdays": [],
      "never_closes": false,
      "irregular": true
    },
    {
      "order": 7,
      "id": 207,
      "area": "滝の湯",
      "name": "滝乃湯",
      "prefecture": "鹿児島県",
      "pref_short": "鹿児島",
      "lat": 31.7708277188,
      "lon": 130.534249082,
      "leg_km_gc": 7.44,
      "cum_km_gc": 107.8,
      "open_min": 1440,
      "last_min": null,
      "closed_weekdays": [],
      "never_closes": true,
      "irregular": false
    },
    {
      "order": 8,
      "id": 125,
      "area": "市比野温泉",
      "name": "割烹旅館　みどり屋",
      "prefecture": "鹿児島県",
      "pref_short": "鹿児島",
      "lat": 31.7893713,
      "lon": 130.4048126,
      "leg_km_gc": 18.09,
      "cum_km_gc": 125.9,
      "open_min": 600,
      "last_min": 1200,
      "closed_weekdays": [],
      "never_closes": false,
      "irregular": true
    },
    {
      "order": 9,
      "id": 233,
      "area": "入来温泉",
      "name": "百薬の名湯 諏訪温泉",
      "prefecture": "鹿児島県",
      "pref_short": "鹿児島",
      "lat": 31.810512,
      "lon": 130.44188,
      "leg_km_gc": 6.05,
      "cum_km_gc": 131.9,
      "open_min": 360,
      "last_min": 1290,
      "closed_weekdays": [],
      "never_closes": false,
      "irregular": true
    },
    {
      "order": 10,
      "id": 234,
      "area": "宮之城温泉",
      "name": "さがら温泉",
      "prefecture": "鹿児島県",
      "pref_short": "鹿児島",
      "lat": 31.946338,
      "lon": 130.464155,
      "leg_km_gc": 18.43,
      "cum_km_gc": 150.4,
      "open_min": 420,
      "last_min": 1290,
      "closed_weekdays": [],
      "never_closes": false,
      "irregular": false
    },
    {
      "order": 11,
      "id": 195,
      "area": "阿久根温泉",
      "name": "きみよし温泉",
      "prefecture": "鹿児島県",
      "pref_short": "鹿児島",
      "lat": 32.0158364717,
      "lon": 130.196703189,
      "leg_km_gc": 40.24,
      "cum_km_gc": 190.6,
      "open_min": 840,
      "last_min": 1110,
      "closed_weekdays": [],
      "never_closes": false,
      "irregular": true
    },
    {
      "order": 12,
      "id": 235,
      "area": "十三奉行温泉",
      "name": "十三奉行（じゅさぶろ）温泉",
      "prefecture": "鹿児島県",
      "pref_short": "鹿児島",
      "lat": 32.0604442,
      "lon": 130.2568871,
      "leg_km_gc": 9.75,
      "cum_km_gc": 200.4,
      "open_min": 600,
      "last_min": 1260,
      "closed_weekdays": [
        2
      ],
      "never_closes": false,
      "irregular": false
    },
    {
      "order": 13,
      "id": 208,
      "area": "湯の鶴温泉",
      "name": "喜久屋旅館",
      "prefecture": "熊本県",
      "pref_short": "熊本",
      "lat": 32.1509041183,
      "lon": 130.441559898,
      "leg_km_gc": 25.6,
      "cum_km_gc": 226.0,
      "open_min": 510,
      "last_min": 1260,
      "closed_weekdays": [],
      "never_closes": false,
      "irregular": true
    },
    {
      "order": 14,
      "id": 206,
      "area": "吉松温泉",
      "name": "前田温泉",
      "prefecture": "鹿児島県",
      "pref_short": "鹿児島",
      "lat": 32.0271954782,
      "lon": 130.742526666,
      "leg_km_gc": 43.34,
      "cum_km_gc": 269.3,
      "open_min": 480,
      "last_min": 1200,
      "closed_weekdays": [],
      "never_closes": true,
      "irregular": false
    },
    {
      "order": 15,
      "id": 124,
      "area": "吉松温泉",
      "name": "鶴丸温泉",
      "prefecture": "鹿児島県",
      "pref_short": "鹿児島",
      "lat": 32.031105,
      "lon": 130.748391,
      "leg_km_gc": 2.15,
      "cum_km_gc": 271.4,
      "open_min": 360,
      "last_min": 1230,
      "closed_weekdays": [],
      "never_closes": true,
      "irregular": false
    },
    {
      "order": 16,
      "id": 155,
      "area": "京町温泉",
      "name": "京町観光ホテル",
      "prefecture": "宮崎県",
      "pref_short": "宮崎",
      "lat": 32.04894,
      "lon": 130.766728,
      "leg_km_gc": 3.4,
      "cum_km_gc": 274.8,
      "open_min": 420,
      "last_min": 1260,
      "closed_weekdays": [],
      "never_closes": true,
      "irregular": false
    },
    {
      "order": 17,
      "id": 97,
      "area": "あきしげゆ温泉",
      "name": "あきしげゆ　",
      "prefecture": "宮崎県",
      "pref_short": "宮崎",
      "lat": 32.0221211,
      "lon": 130.7991321,
      "leg_km_gc": 6.16,
      "cum_km_gc": 281.0,
      "open_min": 600,
      "last_min": 900,
      "closed_weekdays": [
        2
      ],
      "never_closes": false,
      "irregular": false
    },
    {
      "order": 18,
      "id": 200,
      "area": "加久藤温泉",
      "name": "加久藤温泉",
      "prefecture": "宮崎県",
      "pref_short": "宮崎",
      "lat": 32.020834,
      "lon": 130.81535,
      "leg_km_gc": 2.37,
      "cum_km_gc": 283.4,
      "open_min": 900,
      "last_min": 1200,
      "closed_weekdays": [],
      "never_closes": false,
      "irregular": true
    },
    {
      "order": 19,
      "id": 138,
      "area": "白鳥温泉",
      "name": "白鳥温泉下湯",
      "prefecture": "宮崎県",
      "pref_short": "宮崎",
      "lat": 31.979714,
      "lon": 130.830435,
      "leg_km_gc": 7.86,
      "cum_km_gc": 291.2,
      "open_min": 420,
      "last_min": 1200,
      "closed_weekdays": [
        1
      ],
      "never_closes": false,
      "irregular": false
    },
    {
      "order": 20,
      "id": 137,
      "area": "白鳥温泉",
      "name": "白鳥温泉上湯",
      "prefecture": "宮崎県",
      "pref_short": "宮崎",
      "lat": 31.975153,
      "lon": 130.830279,
      "leg_km_gc": 1.06,
      "cum_km_gc": 292.3,
      "open_min": 420,
      "last_min": 1200,
      "closed_weekdays": [
        1
      ],
      "never_closes": false,
      "irregular": false
    },
    {
      "order": 21,
      "id": 106,
      "area": "霧島新湯温泉",
      "name": "霧島新燃荘　",
      "prefecture": "鹿児島県",
      "pref_short": "鹿児島",
      "lat": 31.9028862,
      "lon": 130.8547353,
      "leg_km_gc": 14.36,
      "cum_km_gc": 306.6,
      "open_min": 480,
      "last_min": 1050,
      "closed_weekdays": [
        6
      ],
      "never_closes": false,
      "irregular": true
    },
    {
      "order": 22,
      "id": 104,
      "area": "硫黄谷温泉",
      "name": "霧島ホテル",
      "prefecture": "鹿児島県",
      "pref_short": "鹿児島",
      "lat": 31.8979484,
      "lon": 130.838016,
      "leg_km_gc": 6.52,
      "cum_km_gc": 313.2,
      "open_min": 660,
      "last_min": 1020,
      "closed_weekdays": [
        6
      ],
      "never_closes": false,
      "irregular": true
    },
    {
      "order": 23,
      "id": 105,
      "area": "霧島温泉",
      "name": "霧島湯之谷山荘",
      "prefecture": "鹿児島県",
      "pref_short": "鹿児島",
      "lat": 31.8877011,
      "lon": 130.8352011,
      "leg_km_gc": 7.46,
      "cum_km_gc": 320.6,
      "open_min": 600,
      "last_min": 840,
      "closed_weekdays": [
        2
      ],
      "never_closes": false,
      "irregular": true
    },
    {
      "order": 24,
      "id": 159,
      "area": "安楽温泉",
      "name": "安楽温泉 鶴乃湯",
      "prefecture": "鹿児島県",
      "pref_short": "鹿児島",
      "lat": 31.819269,
      "lon": 130.758306,
      "leg_km_gc": 14.14,
      "cum_km_gc": 334.8,
      "open_min": 480,
      "last_min": 1200,
      "closed_weekdays": [
        2
      ],
      "never_closes": false,
      "irregular": false
    },
    {
      "order": 25,
      "id": 108,
      "area": "妙見温泉",
      "name": "妙見石原荘",
      "prefecture": "鹿児島県",
      "pref_short": "鹿児島",
      "lat": 31.8153044,
      "lon": 130.7568182,
      "leg_km_gc": 1.57,
      "cum_km_gc": 336.3,
      "open_min": 690,
      "last_min": 810,
      "closed_weekdays": [],
      "never_closes": true,
      "irregular": false
    },
    {
      "order": 26,
      "id": 107,
      "area": "妙見温泉",
      "name": "妙見荘　田島本館",
      "prefecture": "鹿児島県",
      "pref_short": "鹿児島",
      "lat": 31.8117887,
      "lon": 130.7576504,
      "leg_km_gc": 0.82,
      "cum_km_gc": 337.2,
      "open_min": 510,
      "last_min": 1140,
      "closed_weekdays": [],
      "never_closes": false,
      "irregular": false
    },
    {
      "order": 27,
      "id": 127,
      "area": "隼人温泉",
      "name": "浜之市ふれあいセンター富の湯",
      "prefecture": "鹿児島県",
      "pref_short": "鹿児島",
      "lat": 31.725379,
      "lon": 130.731838,
      "leg_km_gc": 13.84,
      "cum_km_gc": 351.0,
      "open_min": 540,
      "last_min": 1320,
      "closed_weekdays": [
        0
      ],
      "never_closes": false,
      "irregular": false
    },
    {
      "order": 28,
      "id": 111,
      "area": "日当山温泉",
      "name": "岩戸温泉",
      "prefecture": "鹿児島県",
      "pref_short": "鹿児島",
      "lat": 31.7658799,
      "lon": 130.7713177,
      "leg_km_gc": 7.28,
      "cum_km_gc": 358.3,
      "open_min": 390,
      "last_min": 1290,
      "closed_weekdays": [
        1
      ],
      "never_closes": false,
      "irregular": false
    },
    {
      "order": 29,
      "id": 247,
      "area": "皇子原温泉",
      "name": "健康村",
      "prefecture": "宮崎県",
      "pref_short": "宮崎",
      "lat": 31.906509,
      "lon": 130.964237,
      "leg_km_gc": 31.74,
      "cum_km_gc": 390.0,
      "open_min": 540,
      "last_min": 1170,
      "closed_weekdays": [
        1
      ],
      "never_closes": false,
      "irregular": false
    },
    {
      "order": 30,
      "id": 99,
      "area": "湯之元温泉",
      "name": "湯之元温泉",
      "prefecture": "宮崎県",
      "pref_short": "宮崎",
      "lat": 31.899224,
      "lon": 130.9936665,
      "leg_km_gc": 3.85,
      "cum_km_gc": 393.9,
      "open_min": 600,
      "last_min": 1320,
      "closed_weekdays": [
        2
      ],
      "never_closes": false,
      "irregular": false
    },
    {
      "order": 31,
      "id": 232,
      "area": "ひなもり温泉",
      "name": "こばやし温泉美人の湯",
      "prefecture": "宮崎県",
      "pref_short": "宮崎",
      "lat": 31.9621769,
      "lon": 131.0075058,
      "leg_km_gc": 8.54,
      "cum_km_gc": 402.4,
      "open_min": 660,
      "last_min": 1230,
      "closed_weekdays": [
        0
      ],
      "never_closes": false,
      "irregular": false
    },
    {
      "order": 32,
      "id": 135,
      "area": "小林温泉",
      "name": "コスモス温泉",
      "prefecture": "宮崎県",
      "pref_short": "宮崎",
      "lat": 31.974858,
      "lon": 130.936847,
      "leg_km_gc": 8.99,
      "cum_km_gc": 411.4,
      "open_min": 600,
      "last_min": 1260,
      "closed_weekdays": [
        3
      ],
      "never_closes": false,
      "irregular": false
    },
    {
      "order": 33,
      "id": 209,
      "area": "人吉温泉",
      "name": "相良路の湯 おおが",
      "prefecture": "熊本県",
      "pref_short": "熊本",
      "lat": 32.2089941367,
      "lon": 130.755523742,
      "leg_km_gc": 41.55,
      "cum_km_gc": 452.9,
      "open_min": 1440,
      "last_min": 630,
      "closed_weekdays": [],
      "never_closes": true,
      "irregular": false
    },
    {
      "order": 34,
      "id": 84,
      "area": "人吉温泉",
      "name": "人吉旅館",
      "prefecture": "熊本県",
      "pref_short": "熊本",
      "lat": 32.2120422,
      "lon": 130.7542368,
      "leg_km_gc": 1.38,
      "cum_km_gc": 454.3,
      "open_min": 480,
      "last_min": 1140,
      "closed_weekdays": [],
      "never_closes": false,
      "irregular": true
    },
    {
      "order": 35,
      "id": 83,
      "area": "人吉温泉",
      "name": "華まき温泉",
      "prefecture": "熊本県",
      "pref_short": "熊本",
      "lat": 32.2420144,
      "lon": 130.7259179,
      "leg_km_gc": 5.76,
      "cum_km_gc": 460.1,
      "open_min": 600,
      "last_min": 1200,
      "closed_weekdays": [],
      "never_closes": true,
      "irregular": false
    },
    {
      "order": 36,
      "id": 251,
      "area": "泗水温泉",
      "name": "天然温泉 野の湯",
      "prefecture": "熊本県",
      "pref_short": "熊本",
      "lat": 32.933572,
      "lon": 130.802404,
      "leg_km_gc": 103.66,
      "cum_km_gc": 563.7,
      "open_min": 600,
      "last_min": 1440,
      "closed_weekdays": [],
      "never_closes": true,
      "irregular": false
    },
    {
      "order": 37,
      "id": 72,
      "area": "亀の甲温泉",
      "name": "亀の甲温泉",
      "prefecture": "熊本県",
      "pref_short": "熊本",
      "lat": 32.9386146,
      "lon": 130.7457568,
      "leg_km_gc": 6.67,
      "cum_km_gc": 570.4,
      "open_min": 660,
      "last_min": 1260,
      "closed_weekdays": [
        1
      ],
      "never_closes": false,
      "irregular": false
    },
    {
      "order": 38,
      "id": 74,
      "area": "辰頭温泉",
      "name": "辰頭温泉",
      "prefecture": "熊本県",
      "pref_short": "熊本",
      "lat": 32.9321012,
      "lon": 130.7392211,
      "leg_km_gc": 1.33,
      "cum_km_gc": 571.8,
      "open_min": 360,
      "last_min": 1320,
      "closed_weekdays": [],
      "never_closes": false,
      "irregular": false
    },
    {
      "order": 39,
      "id": 221,
      "area": "宝田温泉",
      "name": "たからの湯",
      "prefecture": "熊本県",
      "pref_short": "熊本",
      "lat": 32.93516922,
      "lon": 130.729278564,
      "leg_km_gc": 1.23,
      "cum_km_gc": 573.0,
      "open_min": 300,
      "last_min": 1320,
      "closed_weekdays": [],
      "never_closes": false,
      "irregular": true
    },
    {
      "order": 40,
      "id": 172,
      "area": "植木温泉",
      "name": "旅館 平山",
      "prefecture": "熊本県",
      "pref_short": "熊本",
      "lat": 32.9552237,
      "lon": 130.7263547,
      "leg_km_gc": 2.86,
      "cum_km_gc": 575.8,
      "open_min": 600,
      "last_min": 1260,
      "closed_weekdays": [
        0,
        1
      ],
      "never_closes": false,
      "irregular": false
    },
    {
      "order": 41,
      "id": 133,
      "area": "山鹿温泉",
      "name": "さくら湯　",
      "prefecture": "熊本県",
      "pref_short": "熊本",
      "lat": 33.014382,
      "lon": 130.688945,
      "leg_km_gc": 9.15,
      "cum_km_gc": 585.0,
      "open_min": 360,
      "last_min": 1410,
      "closed_weekdays": [
        2
      ],
      "never_closes": false,
      "irregular": false
    },
    {
      "order": 42,
      "id": 193,
      "area": "山鹿温泉",
      "name": "新青山荘",
      "prefecture": "熊本県",
      "pref_short": "熊本",
      "lat": 33.0180959,
      "lon": 130.6839166,
      "leg_km_gc": 0.87,
      "cum_km_gc": 585.9,
      "open_min": 780,
      "last_min": 1020,
      "closed_weekdays": [],
      "never_closes": false,
      "irregular": true
    },
    {
      "order": 43,
      "id": 68,
      "area": "平山温泉",
      "name": "平山温泉　元湯",
      "prefecture": "熊本県",
      "pref_short": "熊本",
      "lat": 33.0496859,
      "lon": 130.6532249,
      "leg_km_gc": 6.48,
      "cum_km_gc": 592.3,
      "open_min": 360,
      "last_min": 1290,
      "closed_weekdays": [],
      "never_closes": false,
      "irregular": true
    },
    {
      "order": 44,
      "id": 243,
      "area": "三加和温泉",
      "name": "湯亭 上弦の月",
      "prefecture": "熊本県",
      "pref_short": "熊本",
      "lat": 33.0398483,
      "lon": 130.6147146,
      "leg_km_gc": 5.8,
      "cum_km_gc": 598.1,
      "open_min": 600,
      "last_min": 1440,
      "closed_weekdays": [
        1,
        2
      ],
      "never_closes": false,
      "irregular": false
    },
    {
      "order": 45,
      "id": 151,
      "area": "船小屋温泉",
      "name": "川の駅船小屋　恋ぼたる　温泉館",
      "prefecture": "福岡県",
      "pref_short": "福岡",
      "lat": 33.183035,
      "lon": 130.502717,
      "leg_km_gc": 28.15,
      "cum_km_gc": 626.3,
      "open_min": 600,
      "last_min": 1230,
      "closed_weekdays": [
        1,
        6
      ],
      "never_closes": false,
      "irregular": false
    },
    {
      "order": 46,
      "id": 7,
      "area": "大川温泉",
      "name": "貴肌美人　緑の湯",
      "prefecture": "福岡県",
      "pref_short": "福岡",
      "lat": 33.220007,
      "lon": 130.415536,
      "leg_km_gc": 11.18,
      "cum_km_gc": 637.5,
      "open_min": 600,
      "last_min": 1320,
      "closed_weekdays": [
        1
      ],
      "never_closes": false,
      "irregular": false
    },
    {
      "order": 47,
      "id": 5,
      "area": "久留米温泉",
      "name": "天然の湯　あおき温泉",
      "prefecture": "福岡県",
      "pref_short": "福岡",
      "lat": 33.2394142,
      "lon": 130.4111515,
      "leg_km_gc": 3.33,
      "cum_km_gc": 640.8,
      "open_min": 600,
      "last_min": 1320,
      "closed_weekdays": [
        2
      ],
      "never_closes": false,
      "irregular": false
    },
    {
      "order": 48,
      "id": 241,
      "area": "佐賀大和温泉",
      "name": "ホテル アマンディ",
      "prefecture": "佐賀県",
      "pref_short": "佐賀",
      "lat": 33.321339,
      "lon": 130.270938,
      "leg_km_gc": 22.0,
      "cum_km_gc": 662.8,
      "open_min": 600,
      "last_min": 1380,
      "closed_weekdays": [],
      "never_closes": false,
      "irregular": true
    },
    {
      "order": 49,
      "id": 165,
      "area": "島原温泉",
      "name": "HOTEL シーサイド島原",
      "prefecture": "長崎県",
      "pref_short": "長崎",
      "lat": 32.762608,
      "lon": 130.370718,
      "leg_km_gc": 118.42,
      "cum_km_gc": 781.2,
      "open_min": 360,
      "last_min": 1320,
      "closed_weekdays": [
        1
      ],
      "never_closes": false,
      "irregular": false
    },
    {
      "order": 50,
      "id": 24,
      "area": "雲仙・小地獄温泉",
      "name": "雲仙小地獄温泉館",
      "prefecture": "長崎県",
      "pref_short": "長崎",
      "lat": 32.7316926,
      "lon": 130.2641909,
      "leg_km_gc": 17.11,
      "cum_km_gc": 798.3,
      "open_min": 570,
      "last_min": 1200,
      "closed_weekdays": [
        2,
        6
      ],
      "never_closes": false,
      "irregular": false
    },
    {
      "order": 51,
      "id": 21,
      "area": "小浜温泉",
      "name": "脇浜温泉浴場",
      "prefecture": "長崎県",
      "pref_short": "長崎",
      "lat": 32.7193374,
      "lon": 130.2019825,
      "leg_km_gc": 11.7,
      "cum_km_gc": 810.0,
      "open_min": 300,
      "last_min": 1260,
      "closed_weekdays": [],
      "never_closes": false,
      "irregular": false
    },
    {
      "order": 52,
      "id": 175,
      "area": "小浜温泉",
      "name": "旅館國崎",
      "prefecture": "長崎県",
      "pref_short": "長崎",
      "lat": 32.720107,
      "lon": 130.20278,
      "leg_km_gc": 0.11,
      "cum_km_gc": 810.1,
      "open_min": 720,
      "last_min": 1140,
      "closed_weekdays": [],
      "never_closes": false,
      "irregular": true
    },
    {
      "order": 53,
      "id": 228,
      "area": "龍神温泉",
      "name": "かやぜの湯",
      "prefecture": "長崎県",
      "pref_short": "長崎",
      "lat": 32.9501428,
      "lon": 129.9896023,
      "leg_km_gc": 47.95,
      "cum_km_gc": 858.1,
      "open_min": 630,
      "last_min": 1320,
      "closed_weekdays": [
        1,
        3
      ],
      "never_closes": false,
      "irregular": false
    },
    {
      "order": 54,
      "id": 12,
      "area": "嬉野温泉",
      "name": "嬉泉館",
      "prefecture": "佐賀県",
      "pref_short": "佐賀",
      "lat": 33.0970353,
      "lon": 129.9822873,
      "leg_km_gc": 25.78,
      "cum_km_gc": 883.9,
      "open_min": 630,
      "last_min": 1260,
      "closed_weekdays": [],
      "never_closes": false,
      "irregular": true
    },
    {
      "order": 55,
      "id": 148,
      "area": "波佐見温泉",
      "name": "はさみ温泉 湯治楼",
      "prefecture": "長崎県",
      "pref_short": "長崎",
      "lat": 33.1150641169,
      "lon": 129.868695299,
      "leg_km_gc": 16.86,
      "cum_km_gc": 900.7,
      "open_min": 600,
      "last_min": 1275,
      "closed_weekdays": [],
      "never_closes": false,
      "irregular": true
    },
    {
      "order": 56,
      "id": 11,
      "area": "武雄温泉",
      "name": "元湯",
      "prefecture": "佐賀県",
      "pref_short": "佐賀",
      "lat": 33.1966956,
      "lon": 130.0147702,
      "leg_km_gc": 21.95,
      "cum_km_gc": 922.7,
      "open_min": 390,
      "last_min": 1380,
      "closed_weekdays": [
        6
      ],
      "never_closes": false,
      "irregular": false
    },
    {
      "order": 57,
      "id": 10,
      "area": "古湯温泉",
      "name": "鶴の恩返し よみがえりの宿　鶴霊泉（かくれいせん）",
      "prefecture": "佐賀県",
      "pref_short": "佐賀",
      "lat": 33.3721002,
      "lon": 130.2079904,
      "leg_km_gc": 37.33,
      "cum_km_gc": 960.0,
      "open_min": 660,
      "last_min": 840,
      "closed_weekdays": [],
      "never_closes": false,
      "irregular": true
    },
    {
      "order": 58,
      "id": 15,
      "area": "熊の川温泉",
      "name": "元湯 熊ノ川浴場",
      "prefecture": "佐賀県",
      "pref_short": "佐賀",
      "lat": 33.3659205,
      "lon": 130.2406193,
      "leg_km_gc": 5.2,
      "cum_km_gc": 965.2,
      "open_min": 540,
      "last_min": 1200,
      "closed_weekdays": [
        1,
        4
      ],
      "never_closes": false,
      "irregular": false
    },
    {
      "order": 59,
      "id": 157,
      "area": "熊の川温泉",
      "name": "湯泉郷 温泉館 湯招花",
      "prefecture": "佐賀県",
      "pref_short": "佐賀",
      "lat": 33.36378,
      "lon": 130.241752,
      "leg_km_gc": 0.46,
      "cum_km_gc": 965.7,
      "open_min": 600,
      "last_min": 1200,
      "closed_weekdays": [
        2
      ],
      "never_closes": false,
      "irregular": false
    },
    {
      "order": 60,
      "id": 8,
      "area": "博多温泉",
      "name": "富士の苑",
      "prefecture": "福岡県",
      "pref_short": "福岡",
      "lat": 33.5486264,
      "lon": 130.4321338,
      "leg_km_gc": 37.6,
      "cum_km_gc": 1003.3,
      "open_min": 600,
      "last_min": 1320,
      "closed_weekdays": [
        1
      ],
      "never_closes": false,
      "irregular": false
    },
    {
      "order": 61,
      "id": 9,
      "area": "博多温泉",
      "name": "元祖　元湯　",
      "prefecture": "福岡県",
      "pref_short": "福岡",
      "lat": 33.5471128,
      "lon": 130.4361168,
      "leg_km_gc": 0.71,
      "cum_km_gc": 1004.0,
      "open_min": 780,
      "last_min": 1080,
      "closed_weekdays": [
        3,
        6
      ],
      "never_closes": false,
      "irregular": false
    },
    {
      "order": 62,
      "id": 150,
      "area": "久留米温泉",
      "name": "湯の坂　久留米温泉",
      "prefecture": "福岡県",
      "pref_short": "福岡",
      "lat": 33.3091446849,
      "lon": 130.530058667,
      "leg_km_gc": 33.73,
      "cum_km_gc": 1037.7,
      "open_min": 600,
      "last_min": 1440,
      "closed_weekdays": [],
      "never_closes": true,
      "irregular": false
    },
    {
      "order": 63,
      "id": 192,
      "area": "久留米温泉",
      "name": "いづみ乃湯",
      "prefecture": "福岡県",
      "pref_short": "福岡",
      "lat": 33.3220924,
      "lon": 130.541796,
      "leg_km_gc": 2.23,
      "cum_km_gc": 1039.9,
      "open_min": 600,
      "last_min": 180,
      "closed_weekdays": [],
      "never_closes": false,
      "irregular": false
    },
    {
      "order": 64,
      "id": 167,
      "area": "あさくら温泉",
      "name": "ホテルグランスパアベニュー 幸楽の湯",
      "prefecture": "福岡県",
      "pref_short": "福岡",
      "lat": 33.4186515,
      "lon": 130.6546685,
      "leg_km_gc": 18.27,
      "cum_km_gc": 1058.2,
      "open_min": 360,
      "last_min": 600,
      "closed_weekdays": [],
      "never_closes": true,
      "irregular": false
    },
    {
      "order": 65,
      "id": 196,
      "area": "甘木温泉",
      "name": "天然温泉　卑弥呼ロマンの湯",
      "prefecture": "福岡県",
      "pref_short": "福岡",
      "lat": 33.4159625,
      "lon": 130.6599843,
      "leg_km_gc": 0.71,
      "cum_km_gc": 1058.9,
      "open_min": 540,
      "last_min": 1290,
      "closed_weekdays": [
        0
      ],
      "never_closes": false,
      "irregular": false
    },
    {
      "order": 66,
      "id": 218,
      "area": "吉井温泉",
      "name": "ニュー筑水荘　　",
      "prefecture": "福岡県",
      "pref_short": "福岡",
      "lat": 33.3517899,
      "lon": 130.7751972,
      "leg_km_gc": 15.39,
      "cum_km_gc": 1074.3,
      "open_min": 780,
      "last_min": 1200,
      "closed_weekdays": [],
      "never_closes": false,
      "irregular": true
    },
    {
      "order": 67,
      "id": 191,
      "area": "原鶴温泉",
      "name": "やぐるま荘",
      "prefecture": "福岡県",
      "pref_short": "福岡",
      "lat": 33.351691,
      "lon": 130.7828408,
      "leg_km_gc": 0.92,
      "cum_km_gc": 1075.2,
      "open_min": 600,
      "last_min": 1140,
      "closed_weekdays": [],
      "never_closes": false,
      "irregular": true
    },
    {
      "order": 68,
      "id": 227,
      "area": "林田温泉",
      "name": "ゆのやまの湯",
      "prefecture": "福岡県",
      "pref_short": "福岡",
      "lat": 33.3644659103,
      "lon": 130.826561977,
      "leg_km_gc": 5.83,
      "cum_km_gc": 1081.1,
      "open_min": 780,
      "last_min": 1140,
      "closed_weekdays": [
        3
      ],
      "never_closes": false,
      "irregular": false
    },
    {
      "order": 69,
      "id": 239,
      "area": "筑後川温泉",
      "name": "ホテル花景色 虹の湯",
      "prefecture": "福岡県",
      "pref_short": "福岡",
      "lat": 33.359662,
      "lon": 130.80868,
      "leg_km_gc": 2.46,
      "cum_km_gc": 1083.5,
      "open_min": 660,
      "last_min": 1260,
      "closed_weekdays": [],
      "never_closes": true,
      "irregular": false
    },
    {
      "order": 70,
      "id": 169,
      "area": "筑後川温泉",
      "name": "旅館ふくせんか みるきいの湯",
      "prefecture": "福岡県",
      "pref_short": "福岡",
      "lat": 33.3588777,
      "lon": 130.8065132,
      "leg_km_gc": 0.22,
      "cum_km_gc": 1083.7,
      "open_min": 780,
      "last_min": 1260,
      "closed_weekdays": [
        2
      ],
      "never_closes": false,
      "irregular": false
    },
    {
      "order": 71,
      "id": 242,
      "area": "杖立温泉",
      "name": "旅館 葉隠館",
      "prefecture": "熊本県",
      "pref_short": "熊本",
      "lat": 33.183802,
      "lon": 131.032256,
      "leg_km_gc": 41.22,
      "cum_km_gc": 1125.0,
      "open_min": 660,
      "last_min": 1020,
      "closed_weekdays": [],
      "never_closes": true,
      "irregular": false
    },
    {
      "order": 72,
      "id": 86,
      "area": "杖立温泉",
      "name": "米屋別荘",
      "prefecture": "熊本県",
      "pref_short": "熊本",
      "lat": 33.1814873,
      "lon": 131.0360015,
      "leg_km_gc": 0.55,
      "cum_km_gc": 1125.5,
      "open_min": 600,
      "last_min": 900,
      "closed_weekdays": [],
      "never_closes": false,
      "irregular": true
    },
    {
      "order": 73,
      "id": 81,
      "area": "岳の湯温泉",
      "name": "わいた温泉　ゆけむり茶屋",
      "prefecture": "熊本県",
      "pref_short": "熊本",
      "lat": 33.157731,
      "lon": 131.1362278,
      "leg_km_gc": 13.05,
      "cum_km_gc": 1138.6,
      "open_min": 780,
      "last_min": 1200,
      "closed_weekdays": [
        3
      ],
      "never_closes": false,
      "irregular": false
    },
    {
      "order": 74,
      "id": 80,
      "area": "岳の湯温泉",
      "name": "豊礼の湯",
      "prefecture": "熊本県",
      "pref_short": "熊本",
      "lat": 33.1530926,
      "lon": 131.1359224,
      "leg_km_gc": 0.92,
      "cum_km_gc": 1139.5,
      "open_min": 480,
      "last_min": 1140,
      "closed_weekdays": [
        6
      ],
      "never_closes": false,
      "irregular": false
    },
    {
      "order": 75,
      "id": 132,
      "area": "壁湯天然洞窟温泉",
      "name": "旅館　福元屋",
      "prefecture": "大分県",
      "pref_short": "大分",
      "lat": 33.20493,
      "lon": 131.168406,
      "leg_km_gc": 14.45,
      "cum_km_gc": 1153.9,
      "open_min": 600,
      "last_min": 960,
      "closed_weekdays": [],
      "never_closes": false,
      "irregular": true
    },
    {
      "order": 76,
      "id": 222,
      "area": "九酔渓温泉",
      "name": "渓谷の宿　二匹の鬼",
      "prefecture": "大分県",
      "pref_short": "大分",
      "lat": 33.173182,
      "lon": 131.214486,
      "leg_km_gc": 14.2,
      "cum_km_gc": 1168.1,
      "open_min": 660,
      "last_min": 960,
      "closed_weekdays": [],
      "never_closes": false,
      "irregular": true
    },
    {
      "order": 77,
      "id": 61,
      "area": "筌の口温泉",
      "name": "炭酸温泉　山里の湯",
      "prefecture": "大分県",
      "pref_short": "大分",
      "lat": 33.1666467978,
      "lon": 131.221903824,
      "leg_km_gc": 2.03,
      "cum_km_gc": 1170.2,
      "open_min": 540,
      "last_min": 1020,
      "closed_weekdays": [
        1,
        2
      ],
      "never_closes": false,
      "irregular": false
    },
    {
      "order": 78,
      "id": 60,
      "area": "筌の口温泉",
      "name": "旅館　新清館",
      "prefecture": "大分県",
      "pref_short": "大分",
      "lat": 33.163858,
      "lon": 131.2257783,
      "leg_km_gc": 0.54,
      "cum_km_gc": 1170.7,
      "open_min": 540,
      "last_min": 1260,
      "closed_weekdays": [],
      "never_closes": false,
      "irregular": true
    },
    {
      "order": 79,
      "id": 162,
      "area": "星生温泉",
      "name": "九重星生ホテル",
      "prefecture": "大分県",
      "pref_short": "大分",
      "lat": 33.1117893154,
      "lon": 131.225281967,
      "leg_km_gc": 7.13,
      "cum_km_gc": 1177.8,
      "open_min": 600,
      "last_min": 1110,
      "closed_weekdays": [],
      "never_closes": false,
      "irregular": true
    },
    {
      "order": 80,
      "id": 59,
      "area": "筋湯温泉",
      "name": "うたせ大浴場",
      "prefecture": "大分県",
      "pref_short": "大分",
      "lat": 33.1153267,
      "lon": 131.1839651,
      "leg_km_gc": 7.29,
      "cum_km_gc": 1185.1,
      "open_min": 360,
      "last_min": 1290,
      "closed_weekdays": [],
      "never_closes": false,
      "irregular": true
    },
    {
      "order": 81,
      "id": 76,
      "area": "黒川温泉",
      "name": "旅館　山河",
      "prefecture": "熊本県",
      "pref_short": "熊本",
      "lat": 33.0790323,
      "lon": 131.1321323,
      "leg_km_gc": 9.79,
      "cum_km_gc": 1194.9,
      "open_min": 510,
      "last_min": 1260,
      "closed_weekdays": [],
      "never_closes": false,
      "irregular": true
    },
    {
      "order": 82,
      "id": 182,
      "area": "小田温泉",
      "name": "静寂な森の宿 山しのぶ",
      "prefecture": "熊本県",
      "pref_short": "熊本",
      "lat": 33.0720243,
      "lon": 131.1298467,
      "leg_km_gc": 7.69,
      "cum_km_gc": 1202.6,
      "open_min": 660,
      "last_min": 840,
      "closed_weekdays": [],
      "never_closes": false,
      "irregular": true
    },
    {
      "order": 83,
      "id": 220,
      "area": "阿蘇内牧温泉",
      "name": "雲海薬師温泉",
      "prefecture": "熊本県",
      "pref_short": "熊本",
      "lat": 32.9774413872,
      "lon": 131.046915626,
      "leg_km_gc": 20.02,
      "cum_km_gc": 1222.6,
      "open_min": 720,
      "last_min": 1260,
      "closed_weekdays": [],
      "never_closes": true,
      "irregular": false
    },
    {
      "order": 84,
      "id": 201,
      "area": "大阿蘇　火の山温泉",
      "name": "どんどこ湯",
      "prefecture": "熊本県",
      "pref_short": "熊本",
      "lat": 32.9042823353,
      "lon": 130.990386912,
      "leg_km_gc": 11.91,
      "cum_km_gc": 1234.5,
      "open_min": 660,
      "last_min": 1260,
      "closed_weekdays": [],
      "never_closes": false,
      "irregular": true
    },
    {
      "order": 85,
      "id": 88,
      "area": "地獄温泉",
      "name": "青風荘",
      "prefecture": "熊本県",
      "pref_short": "熊本",
      "lat": 32.8602844,
      "lon": 131.0361705,
      "leg_km_gc": 9.91,
      "cum_km_gc": 1244.5,
      "open_min": 600,
      "last_min": 900,
      "closed_weekdays": [
        1
      ],
      "never_closes": false,
      "irregular": false
    },
    {
      "order": 86,
      "id": 202,
      "area": "垂玉温泉",
      "name": "瀧日和",
      "prefecture": "熊本県",
      "pref_short": "熊本",
      "lat": 32.8617634182,
      "lon": 131.035430039,
      "leg_km_gc": 0.28,
      "cum_km_gc": 1244.7,
      "open_min": 600,
      "last_min": 1080,
      "closed_weekdays": [
        2,
        3
      ],
      "never_closes": false,
      "irregular": false
    },
    {
      "order": 87,
      "id": 62,
      "area": "七里田温泉",
      "name": "七里田温泉館　",
      "prefecture": "大分県",
      "pref_short": "大分",
      "lat": 33.0702564,
      "lon": 131.3288267,
      "leg_km_gc": 51.42,
      "cum_km_gc": 1296.2,
      "open_min": 540,
      "last_min": 1260,
      "closed_weekdays": [
        1
      ],
      "never_closes": false,
      "irregular": false
    },
    {
      "order": 88,
      "id": 143,
      "area": "長湯温泉",
      "name": "山の湯かずよ",
      "prefecture": "大分県",
      "pref_short": "大分",
      "lat": 33.0644093196,
      "lon": 131.368405475,
      "leg_km_gc": 4.53,
      "cum_km_gc": 1300.7,
      "open_min": 660,
      "last_min": 840,
      "closed_weekdays": [
        4
      ],
      "never_closes": false,
      "irregular": false
    },
    {
      "order": 89,
      "id": 44,
      "area": "長湯温泉",
      "name": "水神之森温泉",
      "prefecture": "大分県",
      "pref_short": "大分",
      "lat": 33.0649084,
      "lon": 131.3810618,
      "leg_km_gc": 1.38,
      "cum_km_gc": 1302.1,
      "open_min": 600,
      "last_min": 1020,
      "closed_weekdays": [],
      "never_closes": false,
      "irregular": true
    },
    {
      "order": 90,
      "id": 43,
      "area": "長湯温泉",
      "name": "ラムネ温泉館",
      "prefecture": "大分県",
      "pref_short": "大分",
      "lat": 33.0684192,
      "lon": 131.3801839,
      "leg_km_gc": 0.98,
      "cum_km_gc": 1303.1,
      "open_min": 600,
      "last_min": 1320,
      "closed_weekdays": [
        2
      ],
      "never_closes": false,
      "irregular": false
    },
    {
      "order": 91,
      "id": 203,
      "area": "湯平温泉",
      "name": "旅館 山城屋",
      "prefecture": "大分県",
      "pref_short": "大分",
      "lat": 33.1928286199,
      "lon": 131.326713283,
      "leg_km_gc": 21.21,
      "cum_km_gc": 1324.3,
      "open_min": 600,
      "last_min": 960,
      "closed_weekdays": [],
      "never_closes": false,
      "irregular": true
    },
    {
      "order": 92,
      "id": 48,
      "area": "由布院温泉",
      "name": "ゆふいん泰葉",
      "prefecture": "大分県",
      "pref_short": "大分",
      "lat": 33.2748742,
      "lon": 131.3669351,
      "leg_km_gc": 17.98,
      "cum_km_gc": 1342.3,
      "open_min": 600,
      "last_min": 1200,
      "closed_weekdays": [],
      "never_closes": false,
      "irregular": true
    },
    {
      "order": 93,
      "id": 47,
      "area": "由布院温泉",
      "name": "温泉保養集落 束の間",
      "prefecture": "大分県",
      "pref_short": "大分",
      "lat": 33.2763498,
      "lon": 131.3670202,
      "leg_km_gc": 0.91,
      "cum_km_gc": 1343.2,
      "open_min": 570,
      "last_min": 1110,
      "closed_weekdays": [
        1,
        2
      ],
      "never_closes": false,
      "irregular": false
    },
    {
      "order": 94,
      "id": 42,
      "area": "塚原温泉",
      "name": "火口乃泉",
      "prefecture": "大分県",
      "pref_short": "大分",
      "lat": 33.3131878,
      "lon": 131.4218027,
      "leg_km_gc": 9.4,
      "cum_km_gc": 1352.6,
      "open_min": 540,
      "last_min": 1020,
      "closed_weekdays": [],
      "never_closes": false,
      "irregular": false
    },
    {
      "order": 95,
      "id": 177,
      "area": "明礬温泉",
      "name": "豊前屋旅館",
      "prefecture": "大分県",
      "pref_short": "大分",
      "lat": 33.317372,
      "lon": 131.450962,
      "leg_km_gc": 4.26,
      "cum_km_gc": 1356.8,
      "open_min": 660,
      "last_min": 960,
      "closed_weekdays": [],
      "never_closes": false,
      "irregular": true
    },
    {
      "order": 96,
      "id": 36,
      "area": "明礬温泉",
      "name": "みょうばん湯の里",
      "prefecture": "大分県",
      "pref_short": "大分",
      "lat": 33.3197796,
      "lon": 131.4537477,
      "leg_km_gc": 0.46,
      "cum_km_gc": 1357.3,
      "open_min": 600,
      "last_min": 1140,
      "closed_weekdays": [],
      "never_closes": true,
      "irregular": false
    },
    {
      "order": 97,
      "id": 34,
      "area": "明礬温泉",
      "name": "照湯温泉",
      "prefecture": "大分県",
      "pref_short": "大分",
      "lat": 33.3106975,
      "lon": 131.4600805,
      "leg_km_gc": 3.77,
      "cum_km_gc": 1361.1,
      "open_min": 540,
      "last_min": 1260,
      "closed_weekdays": [],
      "never_closes": true,
      "irregular": false
    },
    {
      "order": 98,
      "id": 31,
      "area": "鉄輪温泉",
      "name": "ひょうたん温泉",
      "prefecture": "大分県",
      "pref_short": "大分",
      "lat": 33.3164692,
      "lon": 131.4764568,
      "leg_km_gc": 2.26,
      "cum_km_gc": 1363.3,
      "open_min": 540,
      "last_min": 1500,
      "closed_weekdays": [],
      "never_closes": true,
      "irregular": false
    },
    {
      "order": 99,
      "id": 32,
      "area": "鉄輪温泉",
      "name": "鉄輪むし湯",
      "prefecture": "大分県",
      "pref_short": "大分",
      "lat": 33.3169109,
      "lon": 131.4779067,
      "leg_km_gc": 0.27,
      "cum_km_gc": 1363.6,
      "open_min": 450,
      "last_min": 1140,
      "closed_weekdays": [
        3
      ],
      "never_closes": false,
      "irregular": false
    },
    {
      "order": 100,
      "id": 38,
      "area": "亀川温泉",
      "name": "四の湯温泉",
      "prefecture": "大分県",
      "pref_short": "大分",
      "lat": 33.322555,
      "lon": 131.4930609,
      "leg_km_gc": 2.5,
      "cum_km_gc": 1366.1,
      "open_min": 420,
      "last_min": 630,
      "closed_weekdays": [
        6
      ],
      "never_closes": false,
      "irregular": false
    },
    {
      "order": 101,
      "id": 160,
      "area": "くにさき六郷温泉",
      "name": "真玉 海門温泉",
      "prefecture": "大分県",
      "pref_short": "大分",
      "lat": 33.612874,
      "lon": 131.471759,
      "leg_km_gc": 45.13,
      "cum_km_gc": 1411.2,
      "open_min": 900,
      "last_min": 1200,
      "closed_weekdays": [
        3
      ],
      "never_closes": false,
      "irregular": false
    },
    {
      "order": 102,
      "id": 244,
      "area": "山香温泉",
      "name": "風の郷",
      "prefecture": "大分県",
      "pref_short": "大分",
      "lat": 33.458036,
      "lon": 131.505929,
      "leg_km_gc": 25.37,
      "cum_km_gc": 1436.6,
      "open_min": 660,
      "last_min": 1260,
      "closed_weekdays": [
        2
      ],
      "never_closes": false,
      "irregular": false
    },
    {
      "order": 103,
      "id": 188,
      "area": "別府温泉",
      "name": "別府のお宿　加賀屋",
      "prefecture": "大分県",
      "pref_short": "大分",
      "lat": 33.281226,
      "lon": 131.5069376,
      "leg_km_gc": 24.64,
      "cum_km_gc": 1461.2,
      "open_min": 660,
      "last_min": 915,
      "closed_weekdays": [],
      "never_closes": false,
      "irregular": true
    },
    {
      "order": 104,
      "id": 29,
      "area": "別府温泉",
      "name": "竹瓦温泉",
      "prefecture": "大分県",
      "pref_short": "大分",
      "lat": 33.277457,
      "lon": 131.5059543,
      "leg_km_gc": 0.6,
      "cum_km_gc": 1461.8,
      "open_min": 390,
      "last_min": 1290,
      "closed_weekdays": [
        2
      ],
      "never_closes": false,
      "irregular": false
    },
    {
      "order": 105,
      "id": 216,
      "area": "府内温泉",
      "name": "府内温泉",
      "prefecture": "大分県",
      "pref_short": "大分",
      "lat": 33.2380708559,
      "lon": 131.608480407,
      "leg_km_gc": 11.73,
      "cum_km_gc": 1473.5,
      "open_min": 840,
      "last_min": 1350,
      "closed_weekdays": [
        1
      ],
      "never_closes": false,
      "irregular": false
    },
    {
      "order": 106,
      "id": 66,
      "area": "高崎山温泉",
      "name": "おさるの湯",
      "prefecture": "大分県",
      "pref_short": "大分",
      "lat": 33.235627,
      "lon": 131.533628,
      "leg_km_gc": 9.2,
      "cum_km_gc": 1482.7,
      "open_min": 300,
      "last_min": 1320,
      "closed_weekdays": [
        3
      ],
      "never_closes": false,
      "irregular": false
    },
    {
      "order": 107,
      "id": 229,
      "area": "別府温泉",
      "name": "永石温泉",
      "prefecture": "大分県",
      "pref_short": "大分",
      "lat": 33.273096,
      "lon": 131.5009401,
      "leg_km_gc": 7.27,
      "cum_km_gc": 1490.0,
      "open_min": 390,
      "last_min": 840,
      "closed_weekdays": [
        1
      ],
      "never_closes": false,
      "irregular": false
    },
    {
      "order": 108,
      "id": 41,
      "area": "浜脇温泉",
      "name": "茶房たかさきの湯",
      "prefecture": "大分県",
      "pref_short": "大分",
      "lat": 33.2716105,
      "lon": 131.4999769,
      "leg_km_gc": 0.36,
      "cum_km_gc": 1490.4,
      "open_min": 600,
      "last_min": 930,
      "closed_weekdays": [
        1,
        2,
        3
      ],
      "never_closes": false,
      "irregular": false
    }
  ]
}